<?xml version="1.0" encoding="UTF-8"?>
<kml xmlns="http://www.opengis.net/kml/2.2">
<Document>
    <Style id="redDot">
      <IconStyle>
        <Icon>
          <href>http://labs.google.com/ridefinder/images/mm_20_red.png
          </href>
        </Icon>
      </IconStyle>
    </Style>

    <Style id="blueDot">
      <IconStyle>
        <Icon>
          <href>http://labs.google.com/ridefinder/images/mm_20_blue.png
          </href>
        </Icon>
      </IconStyle>
    </Style>


    
     <Placemark>
    <name>Cramond</name>
    <styleUrl>#redDot</styleUrl>
    <description>
      0.830000
    </description>
    <Point>
      <coordinates>-3.303783,55.971681,5</coordinates>
    </Point>
  </Placemark>
    
     <Placemark>
    <name>Plaistow</name>
    <styleUrl>#redDot</styleUrl>
    <description>
      1.195000
    </description>
    <Point>
      <coordinates>0.025600,51.528435,5</coordinates>
    </Point>
  </Placemark>
    
     <Placemark>
    <name>Childwall</name>
    <styleUrl>#redDot</styleUrl>
    <description>
      2.029000
    </description>
    <Point>
      <coordinates>-2.893418,53.396539,5</coordinates>
    </Point>
  </Placemark>
    
     <Placemark>
    <name>Dunmurry</name>
    <styleUrl>#redDot</styleUrl>
    <description>
      1.854000
    </description>
    <Point>
      <coordinates>-6.015721,54.556648,5</coordinates>
    </Point>
  </Placemark>
    
     <Placemark>
    <name>Danescourt</name>
    <styleUrl>#redDot</styleUrl>
    <description>
      0.528000
    </description>
    <Point>
      <coordinates>-3.239042,51.502578,5</coordinates>
    </Point>
  </Placemark>
    
     <Placemark>
    <name>Hyndland</name>
    <styleUrl>#redDot</styleUrl>
    <description>
      0.713000
    </description>
    <Point>
      <coordinates>-4.308218,55.877726,5</coordinates>
    </Point>
  </Placemark>
    
     <Placemark>
    <name>Limehouse</name>
    <styleUrl>#redDot</styleUrl>
    <description>
      1.556000
    </description>
    <Point>
      <coordinates>-0.034406,51.512370,5</coordinates>
    </Point>
  </Placemark>
    
     <Placemark>
    <name>Acton</name>
    <styleUrl>#redDot</styleUrl>
    <description>
      2.195000
    </description>
    <Point>
      <coordinates>-0.265266,51.508333,5</coordinates>
    </Point>
  </Placemark>
    
     <Placemark>
    <name>Govanhill</name>
    <styleUrl>#redDot</styleUrl>
    <description>
      0.804000
    </description>
    <Point>
      <coordinates>-4.260837,55.836548,5</coordinates>
    </Point>
  </Placemark>
    
     <Placemark>
    <name>Harehills</name>
    <styleUrl>#redDot</styleUrl>
    <description>
      1.164000
    </description>
    <Point>
      <coordinates>-1.513273,53.810909,5</coordinates>
    </Point>
  </Placemark>
    
     <Placemark>
    <name>Byres Road</name>
    <styleUrl>#redDot</styleUrl>
    <description>
      0.406000
    </description>
    <Point>
      <coordinates>-4.295493,55.873581,5</coordinates>
    </Point>
  </Placemark>
    
     <Placemark>
    <name>Broomhouse</name>
    <styleUrl>#redDot</styleUrl>
    <description>
      0.522000
    </description>
    <Point>
      <coordinates>-3.279462,55.927672,5</coordinates>
    </Point>
  </Placemark>
    
     <Placemark>
    <name>Barnes</name>
    <styleUrl>#redDot</styleUrl>
    <description>
      1.205000
    </description>
    <Point>
      <coordinates>-0.245564,51.469125,5</coordinates>
    </Point>
  </Placemark>
    
     <Placemark>
    <name>West Heath</name>
    <styleUrl>#redDot</styleUrl>
    <description>
      0.871000
    </description>
    <Point>
      <coordinates>-1.958686,52.397386,5</coordinates>
    </Point>
  </Placemark>
    
     <Placemark>
    <name>Kingstanding</name>
    <styleUrl>#redDot</styleUrl>
    <description>
      1.505000
    </description>
    <Point>
      <coordinates>-1.879684,52.546196,5</coordinates>
    </Point>
  </Placemark>
    
     <Placemark>
    <name>Caerau</name>
    <styleUrl>#redDot</styleUrl>
    <description>
      1.117000
    </description>
    <Point>
      <coordinates>-3.246954,51.471808,5</coordinates>
    </Point>
  </Placemark>
    
     <Placemark>
    <name>Lockleaze</name>
    <styleUrl>#redDot</styleUrl>
    <description>
      0.456000
    </description>
    <Point>
      <coordinates>-2.564954,51.489867,5</coordinates>
    </Point>
  </Placemark>
    
     <Placemark>
    <name>Bexley</name>
    <styleUrl>#redDot</styleUrl>
    <description>
      2.573000
    </description>
    <Point>
      <coordinates>0.140653,51.456923,5</coordinates>
    </Point>
  </Placemark>
    
     <Placemark>
    <name>Muirhead</name>
    <styleUrl>#redDot</styleUrl>
    <description>
      0.858000
    </description>
    <Point>
      <coordinates>-4.107038,55.902069,5</coordinates>
    </Point>
  </Placemark>
    
     <Placemark>
    <name>Govan</name>
    <styleUrl>#redDot</styleUrl>
    <description>
      1.339000
    </description>
    <Point>
      <coordinates>-4.317563,55.859345,5</coordinates>
    </Point>
  </Placemark>
    
     <Placemark>
    <name>Northenden</name>
    <styleUrl>#redDot</styleUrl>
    <description>
      0.661000
    </description>
    <Point>
      <coordinates>-2.256928,53.405920,5</coordinates>
    </Point>
  </Placemark>
    
     <Placemark>
    <name>Bristol City Centre</name>
    <styleUrl>#redDot</styleUrl>
    <description>
      1.314000
    </description>
    <Point>
      <coordinates>-2.592384,51.455989,5</coordinates>
    </Point>
  </Placemark>
    
     <Placemark>
    <name>Hotwells</name>
    <styleUrl>#redDot</styleUrl>
    <description>
      0.537000
    </description>
    <Point>
      <coordinates>-2.618790,51.449816,5</coordinates>
    </Point>
  </Placemark>
    
     <Placemark>
    <name>Sharston</name>
    <styleUrl>#redDot</styleUrl>
    <description>
      0.611000
    </description>
    <Point>
      <coordinates>-2.256698,53.392883,5</coordinates>
    </Point>
  </Placemark>
    
     <Placemark>
    <name>Yardley</name>
    <styleUrl>#redDot</styleUrl>
    <description>
      2.092000
    </description>
    <Point>
      <coordinates>-1.815341,52.464788,5</coordinates>
    </Point>
  </Placemark>
    
     <Placemark>
    <name>Lenton Abbey</name>
    <styleUrl>#redDot</styleUrl>
    <description>
      0.251000
    </description>
    <Point>
      <coordinates>-1.211689,52.935845,5</coordinates>
    </Point>
  </Placemark>
    
     <Placemark>
    <name>Barrhead</name>
    <styleUrl>#redDot</styleUrl>
    <description>
      1.355000
    </description>
    <Point>
      <coordinates>-4.391004,55.800395,5</coordinates>
    </Point>
  </Placemark>
    
     <Placemark>
    <name>Sydenham</name>
    <styleUrl>#redDot</styleUrl>
    <description>
      1.198000
    </description>
    <Point>
      <coordinates>-0.052969,51.426868,5</coordinates>
    </Point>
  </Placemark>
    
     <Placemark>
    <name>Comely Bank</name>
    <styleUrl>#redDot</styleUrl>
    <description>
      0.400000
    </description>
    <Point>
      <coordinates>-3.219237,55.957813,5</coordinates>
    </Point>
  </Placemark>
    
     <Placemark>
    <name>Oldbury</name>
    <styleUrl>#redDot</styleUrl>
    <description>
      4.207000
    </description>
    <Point>
      <coordinates>-2.011855,52.487016,5</coordinates>
    </Point>
  </Placemark>
    
     <Placemark>
    <name>Pontcanna</name>
    <styleUrl>#redDot</styleUrl>
    <description>
      0.719000
    </description>
    <Point>
      <coordinates>-3.198613,51.484744,5</coordinates>
    </Point>
  </Placemark>
    
     <Placemark>
    <name>Upton Park</name>
    <styleUrl>#redDot</styleUrl>
    <description>
      0.961000
    </description>
    <Point>
      <coordinates>0.036993,51.533935,5</coordinates>
    </Point>
  </Placemark>
    
     <Placemark>
    <name>Bradley Stoke</name>
    <styleUrl>#redDot</styleUrl>
    <description>
      1.802000
    </description>
    <Point>
      <coordinates>-2.552277,51.534451,5</coordinates>
    </Point>
  </Placemark>
    
     <Placemark>
    <name>Morden</name>
    <styleUrl>#redDot</styleUrl>
    <description>
      1.726000
    </description>
    <Point>
      <coordinates>-0.195425,51.392822,5</coordinates>
    </Point>
  </Placemark>
    
     <Placemark>
    <name>Currie</name>
    <styleUrl>#redDot</styleUrl>
    <description>
      1.570000
    </description>
    <Point>
      <coordinates>-3.311474,55.897535,5</coordinates>
    </Point>
  </Placemark>
    
     <Placemark>
    <name>Charing Cross</name>
    <styleUrl>#redDot</styleUrl>
    <description>
      0.407000
    </description>
    <Point>
      <coordinates>-4.272617,55.866219,5</coordinates>
    </Point>
  </Placemark>
    
     <Placemark>
    <name>Southall</name>
    <styleUrl>#redDot</styleUrl>
    <description>
      1.410000
    </description>
    <Point>
      <coordinates>-0.377129,51.508660,5</coordinates>
    </Point>
  </Placemark>
    
     <Placemark>
    <name>Nechells</name>
    <styleUrl>#redDot</styleUrl>
    <description>
      1.187000
    </description>
    <Point>
      <coordinates>-1.872108,52.493293,5</coordinates>
    </Point>
  </Placemark>
    
     <Placemark>
    <name>Heath</name>
    <styleUrl>#redDot</styleUrl>
    <description>
      1.570000
    </description>
    <Point>
      <coordinates>-3.190474,51.503713,5</coordinates>
    </Point>
  </Placemark>
    
     <Placemark>
    <name>Splott</name>
    <styleUrl>#redDot</styleUrl>
    <description>
      0.865000
    </description>
    <Point>
      <coordinates>-3.152733,51.483499,5</coordinates>
    </Point>
  </Placemark>
    
     <Placemark>
    <name>Saughton</name>
    <styleUrl>#redDot</styleUrl>
    <description>
      0.517000
    </description>
    <Point>
      <coordinates>-3.267756,55.930483,5</coordinates>
    </Point>
  </Placemark>
    
     <Placemark>
    <name>Duddingston</name>
    <styleUrl>#redDot</styleUrl>
    <description>
      1.688000
    </description>
    <Point>
      <coordinates>-3.125526,55.943281,5</coordinates>
    </Point>
  </Placemark>
    
     <Placemark>
    <name>Canton</name>
    <styleUrl>#redDot</styleUrl>
    <description>
      1.476000
    </description>
    <Point>
      <coordinates>-3.205661,51.482149,5</coordinates>
    </Point>
  </Placemark>
    
     <Placemark>
    <name>Sidcup</name>
    <styleUrl>#redDot</styleUrl>
    <description>
      1.622000
    </description>
    <Point>
      <coordinates>0.103004,51.433093,5</coordinates>
    </Point>
  </Placemark>
    
     <Placemark>
    <name>Meadowbank</name>
    <styleUrl>#redDot</styleUrl>
    <description>
      1.260000
    </description>
    <Point>
      <coordinates>-3.158353,55.955794,5</coordinates>
    </Point>
  </Placemark>
    
     <Placemark>
    <name>Bothwell</name>
    <styleUrl>#redDot</styleUrl>
    <description>
      0.783000
    </description>
    <Point>
      <coordinates>-4.068149,55.805212,5</coordinates>
    </Point>
  </Placemark>
    
     <Placemark>
    <name>Tividale</name>
    <styleUrl>#redDot</styleUrl>
    <description>
      1.113000
    </description>
    <Point>
      <coordinates>-2.048276,52.509257,5</coordinates>
    </Point>
  </Placemark>
    
     <Placemark>
    <name>Maindy</name>
    <styleUrl>#redDot</styleUrl>
    <description>
      0.441000
    </description>
    <Point>
      <coordinates>-3.191718,51.497070,5</coordinates>
    </Point>
  </Placemark>
    
     <Placemark>
    <name>Southville</name>
    <styleUrl>#redDot</styleUrl>
    <description>
      0.884000
    </description>
    <Point>
      <coordinates>-2.606645,51.441194,5</coordinates>
    </Point>
  </Placemark>
    
     <Placemark>
    <name>Billesley</name>
    <styleUrl>#redDot</styleUrl>
    <description>
      0.566000
    </description>
    <Point>
      <coordinates>-1.867563,52.424762,5</coordinates>
    </Point>
  </Placemark>
    
     <Placemark>
    <name>Levenshulme</name>
    <styleUrl>#redDot</styleUrl>
    <description>
      1.095000
    </description>
    <Point>
      <coordinates>-2.189987,53.444110,5</coordinates>
    </Point>
  </Placemark>
    
     <Placemark>
    <name>Pudsey</name>
    <styleUrl>#redDot</styleUrl>
    <description>
      2.777000
    </description>
    <Point>
      <coordinates>-1.665437,53.800531,5</coordinates>
    </Point>
  </Placemark>
    
     <Placemark>
    <name>Brick Lane</name>
    <styleUrl>#redDot</styleUrl>
    <description>
      0.885000
    </description>
    <Point>
      <coordinates>-0.063535,51.520494,5</coordinates>
    </Point>
  </Placemark>
    
     <Placemark>
    <name>Botanic</name>
    <styleUrl>#redDot</styleUrl>
    <description>
      0.501000
    </description>
    <Point>
      <coordinates>-5.929157,54.585454,5</coordinates>
    </Point>
  </Placemark>
    
     <Placemark>
    <name>Tooting Broadway</name>
    <styleUrl>#redDot</styleUrl>
    <description>
      0.975000
    </description>
    <Point>
      <coordinates>-0.163465,51.424941,5</coordinates>
    </Point>
  </Placemark>
    
     <Placemark>
    <name>Morley</name>
    <styleUrl>#redDot</styleUrl>
    <description>
      1.965000
    </description>
    <Point>
      <coordinates>-1.597814,53.747199,5</coordinates>
    </Point>
  </Placemark>
    
     <Placemark>
    <name>Windmill Hill</name>
    <styleUrl>#redDot</styleUrl>
    <description>
      0.275000
    </description>
    <Point>
      <coordinates>-2.592255,51.437298,5</coordinates>
    </Point>
  </Placemark>
    
     <Placemark>
    <name>Edmonton</name>
    <styleUrl>#redDot</styleUrl>
    <description>
      1.648000
    </description>
    <Point>
      <coordinates>-0.061153,51.621154,5</coordinates>
    </Point>
  </Placemark>
    
     <Placemark>
    <name>Leeds</name>
    <styleUrl>#redDot</styleUrl>
    <description>
      25.768000
    </description>
    <Point>
      <coordinates>-1.541784,53.808019,5</coordinates>
    </Point>
  </Placemark>
    
     <Placemark>
    <name>Sea Mills</name>
    <styleUrl>#redDot</styleUrl>
    <description>
      0.767000
    </description>
    <Point>
      <coordinates>-2.646831,51.487754,5</coordinates>
    </Point>
  </Placemark>
    
     <Placemark>
    <name>Oxford Road</name>
    <styleUrl>#redDot</styleUrl>
    <description>
      0.955000
    </description>
    <Point>
      <coordinates>-2.234372,53.465550,5</coordinates>
    </Point>
  </Placemark>
    
     <Placemark>
    <name>Chapel Allerton</name>
    <styleUrl>#redDot</styleUrl>
    <description>
      1.349000
    </description>
    <Point>
      <coordinates>-1.534327,53.825749,5</coordinates>
    </Point>
  </Placemark>
    
     <Placemark>
    <name>Croftfoot</name>
    <styleUrl>#redDot</styleUrl>
    <description>
      0.982000
    </description>
    <Point>
      <coordinates>-4.232833,55.812982,5</coordinates>
    </Point>
  </Placemark>
    
     <Placemark>
    <name>Paisley</name>
    <styleUrl>#redDot</styleUrl>
    <description>
      4.134000
    </description>
    <Point>
      <coordinates>-4.428698,55.840406,5</coordinates>
    </Point>
  </Placemark>
    
     <Placemark>
    <name>Southside</name>
    <styleUrl>#redDot</styleUrl>
    <description>
      0.580000
    </description>
    <Point>
      <coordinates>-3.182162,55.943244,5</coordinates>
    </Point>
  </Placemark>
    
     <Placemark>
    <name>Wallasey</name>
    <styleUrl>#redDot</styleUrl>
    <description>
      2.130000
    </description>
    <Point>
      <coordinates>-3.043626,53.422009,5</coordinates>
    </Point>
  </Placemark>
    
     <Placemark>
    <name>Kings Norton</name>
    <styleUrl>#redDot</styleUrl>
    <description>
      3.043000
    </description>
    <Point>
      <coordinates>-1.932730,52.407064,5</coordinates>
    </Point>
  </Placemark>
    
     <Placemark>
    <name>Gloucester Road</name>
    <styleUrl>#redDot</styleUrl>
    <description>
      1.606000
    </description>
    <Point>
      <coordinates>-2.589328,51.473892,5</coordinates>
    </Point>
  </Placemark>
    
     <Placemark>
    <name>Enfield</name>
    <styleUrl>#redDot</styleUrl>
    <description>
      3.379000
    </description>
    <Point>
      <coordinates>-0.069821,51.647538,5</coordinates>
    </Point>
  </Placemark>
    
     <Placemark>
    <name>Old Town</name>
    <styleUrl>#redDot</styleUrl>
    <description>
      0.879000
    </description>
    <Point>
      <coordinates>-3.187907,55.947990,5</coordinates>
    </Point>
  </Placemark>
    
     <Placemark>
    <name>Trinity</name>
    <styleUrl>#redDot</styleUrl>
    <description>
      1.600000
    </description>
    <Point>
      <coordinates>-3.201751,55.975632,5</coordinates>
    </Point>
  </Placemark>
    
     <Placemark>
    <name>Sparkbrook</name>
    <styleUrl>#redDot</styleUrl>
    <description>
      0.880000
    </description>
    <Point>
      <coordinates>-1.870769,52.458721,5</coordinates>
    </Point>
  </Placemark>
    
     <Placemark>
    <name>Gloucester</name>
    <styleUrl>#redDot</styleUrl>
    <description>
      15.199000
    </description>
    <Point>
      <coordinates>-2.236449,51.858146,5</coordinates>
    </Point>
  </Placemark>
    
     <Placemark>
    <name>Whiteladies Road</name>
    <styleUrl>#redDot</styleUrl>
    <description>
      0.562000
    </description>
    <Point>
      <coordinates>-2.610878,51.465547,5</coordinates>
    </Point>
  </Placemark>
    
     <Placemark>
    <name>Peckham</name>
    <styleUrl>#redDot</styleUrl>
    <description>
      1.202000
    </description>
    <Point>
      <coordinates>-0.067469,51.471610,5</coordinates>
    </Point>
  </Placemark>
    
     <Placemark>
    <name>Bromley</name>
    <styleUrl>#redDot</styleUrl>
    <description>
      4.669000
    </description>
    <Point>
      <coordinates>0.015748,51.405256,5</coordinates>
    </Point>
  </Placemark>
    
     <Placemark>
    <name>Easton</name>
    <styleUrl>#redDot</styleUrl>
    <description>
      0.884000
    </description>
    <Point>
      <coordinates>-2.564121,51.464176,5</coordinates>
    </Point>
  </Placemark>
    
     <Placemark>
    <name>Atlantic Wharf</name>
    <styleUrl>#redDot</styleUrl>
    <description>
      0.185000
    </description>
    <Point>
      <coordinates>-3.165826,51.472532,5</coordinates>
    </Point>
  </Placemark>
    
     <Placemark>
    <name>Kinning Park</name>
    <styleUrl>#redDot</styleUrl>
    <description>
      0.657000
    </description>
    <Point>
      <coordinates>-4.285460,55.852380,5</coordinates>
    </Point>
  </Placemark>
    
     <Placemark>
    <name>East Croydon</name>
    <styleUrl>#redDot</styleUrl>
    <description>
      1.471000
    </description>
    <Point>
      <coordinates>-0.089750,51.375836,5</coordinates>
    </Point>
  </Placemark>
    
     <Placemark>
    <name>Leckwith</name>
    <styleUrl>#redDot</styleUrl>
    <description>
      0.930000
    </description>
    <Point>
      <coordinates>-3.201622,51.473109,5</coordinates>
    </Point>
  </Placemark>
    
     <Placemark>
    <name>Kingsknowe</name>
    <styleUrl>#redDot</styleUrl>
    <description>
      0.300000
    </description>
    <Point>
      <coordinates>-3.263186,55.917839,5</coordinates>
    </Point>
  </Placemark>
    
     <Placemark>
    <name>Marshfield</name>
    <styleUrl>#redDot</styleUrl>
    <description>
      0.566000
    </description>
    <Point>
      <coordinates>-3.066802,51.532034,5</coordinates>
    </Point>
  </Placemark>
    
     <Placemark>
    <name>Shoreditch</name>
    <styleUrl>#redDot</styleUrl>
    <description>
      1.309000
    </description>
    <Point>
      <coordinates>-0.073691,51.528306,5</coordinates>
    </Point>
  </Placemark>
    
     <Placemark>
    <name>Radford</name>
    <styleUrl>#redDot</styleUrl>
    <description>
      0.726000
    </description>
    <Point>
      <coordinates>-1.172073,52.959655,5</coordinates>
    </Point>
  </Placemark>
    
     <Placemark>
    <name>Newhaven</name>
    <styleUrl>#redDot</styleUrl>
    <description>
      0.673000
    </description>
    <Point>
      <coordinates>-3.189905,55.976941,5</coordinates>
    </Point>
  </Placemark>
    
     <Placemark>
    <name>Bestwood</name>
    <styleUrl>#redDot</styleUrl>
    <description>
      0.511000
    </description>
    <Point>
      <coordinates>-1.168645,52.993340,5</coordinates>
    </Point>
  </Placemark>
    
     <Placemark>
    <name>Barnton</name>
    <styleUrl>#redDot</styleUrl>
    <description>
      1.382000
    </description>
    <Point>
      <coordinates>-3.301703,55.960457,5</coordinates>
    </Point>
  </Placemark>
    
     <Placemark>
    <name>North London</name>
    <styleUrl>#redDot</styleUrl>
    <description>
      9.910000
    </description>
    <Point>
      <coordinates>-0.108871,51.601942,5</coordinates>
    </Point>
  </Placemark>
    
     <Placemark>
    <name>Bath</name>
    <styleUrl>#redDot</styleUrl>
    <description>
      10.195000
    </description>
    <Point>
      <coordinates>-2.371458,51.373437,5</coordinates>
    </Point>
  </Placemark>
    
     <Placemark>
    <name>New Brighton</name>
    <styleUrl>#redDot</styleUrl>
    <description>
      0.761000
    </description>
    <Point>
      <coordinates>-3.040202,53.433426,5</coordinates>
    </Point>
  </Placemark>
    
     <Placemark>
    <name>Jordanhill</name>
    <styleUrl>#redDot</styleUrl>
    <description>
      1.294000
    </description>
    <Point>
      <coordinates>-4.331721,55.881506,5</coordinates>
    </Point>
  </Placemark>
    
     <Placemark>
    <name>Mosspark</name>
    <styleUrl>#redDot</styleUrl>
    <description>
      0.729000
    </description>
    <Point>
      <coordinates>-4.328649,55.841266,5</coordinates>
    </Point>
  </Placemark>
    
     <Placemark>
    <name>Leicester</name>
    <styleUrl>#redDot</styleUrl>
    <description>
      23.048000
    </description>
    <Point>
      <coordinates>-1.142292,52.625621,5</coordinates>
    </Point>
  </Placemark>
    
     <Placemark>
    <name>Brentry</name>
    <styleUrl>#redDot</styleUrl>
    <description>
      1.103000
    </description>
    <Point>
      <coordinates>-2.607433,51.509271,5</coordinates>
    </Point>
  </Placemark>
    
     <Placemark>
    <name>Southfields</name>
    <styleUrl>#redDot</styleUrl>
    <description>
      1.283000
    </description>
    <Point>
      <coordinates>-0.203636,51.445862,5</coordinates>
    </Point>
  </Placemark>
    
     <Placemark>
    <name>Smiths Wood</name>
    <styleUrl>#redDot</styleUrl>
    <description>
      1.064000
    </description>
    <Point>
      <coordinates>-1.747064,52.502456,5</coordinates>
    </Point>
  </Placemark>
    
     <Placemark>
    <name>Beeston</name>
    <styleUrl>#redDot</styleUrl>
    <description>
      1.344000
    </description>
    <Point>
      <coordinates>-1.210340,52.927760,5</coordinates>
    </Point>
  </Placemark>
    
     <Placemark>
    <name>Balgreen</name>
    <styleUrl>#redDot</styleUrl>
    <description>
      0.719000
    </description>
    <Point>
      <coordinates>-3.252548,55.938843,5</coordinates>
    </Point>
  </Placemark>
    
     <Placemark>
    <name>Failsworth</name>
    <styleUrl>#redDot</styleUrl>
    <description>
      1.661000
    </description>
    <Point>
      <coordinates>-2.159878,53.505166,5</coordinates>
    </Point>
  </Placemark>
    
     <Placemark>
    <name>Bakersfield</name>
    <styleUrl>#redDot</styleUrl>
    <description>
      0.802000
    </description>
    <Point>
      <coordinates>-1.110216,52.959349,5</coordinates>
    </Point>
  </Placemark>
    
     <Placemark>
    <name>Beckton</name>
    <styleUrl>#redDot</styleUrl>
    <description>
      1.482000
    </description>
    <Point>
      <coordinates>0.051766,51.518465,5</coordinates>
    </Point>
  </Placemark>
    
     <Placemark>
    <name>St Andrews</name>
    <styleUrl>#redDot</styleUrl>
    <description>
      0.723000
    </description>
    <Point>
      <coordinates>-2.588111,51.469812,5</coordinates>
    </Point>
  </Placemark>
    
     <Placemark>
    <name>Didsbury</name>
    <styleUrl>#redDot</styleUrl>
    <description>
      1.825000
    </description>
    <Point>
      <coordinates>-2.230742,53.422331,5</coordinates>
    </Point>
  </Placemark>
    
     <Placemark>
    <name>Bournemouth</name>
    <styleUrl>#redDot</styleUrl>
    <description>
      8.530000
    </description>
    <Point>
      <coordinates>-1.865246,50.739173,5</coordinates>
    </Point>
  </Placemark>
    
     <Placemark>
    <name>Finaghy</name>
    <styleUrl>#redDot</styleUrl>
    <description>
      1.004000
    </description>
    <Point>
      <coordinates>-5.981144,54.558756,5</coordinates>
    </Point>
  </Placemark>
    
     <Placemark>
    <name>Townhead</name>
    <styleUrl>#redDot</styleUrl>
    <description>
      0.228000
    </description>
    <Point>
      <coordinates>-4.243059,55.865189,5</coordinates>
    </Point>
  </Placemark>
    
     <Placemark>
    <name>Glasgow Green</name>
    <styleUrl>#redDot</styleUrl>
    <description>
      0.565000
    </description>
    <Point>
      <coordinates>-4.231048,55.848469,5</coordinates>
    </Point>
  </Placemark>
    
     <Placemark>
    <name>Broxtowe</name>
    <styleUrl>#redDot</styleUrl>
    <description>
      0.511000
    </description>
    <Point>
      <coordinates>-1.214638,52.977655,5</coordinates>
    </Point>
  </Placemark>
    
     <Placemark>
    <name>Tooting</name>
    <styleUrl>#redDot</styleUrl>
    <description>
      1.633000
    </description>
    <Point>
      <coordinates>-0.159656,51.426242,5</coordinates>
    </Point>
  </Placemark>
    
     <Placemark>
    <name>Glasgow City Centre</name>
    <styleUrl>#redDot</styleUrl>
    <description>
      2.189000
    </description>
    <Point>
      <coordinates>-4.255772,55.862099,5</coordinates>
    </Point>
  </Placemark>
    
     <Placemark>
    <name>South Gyle</name>
    <styleUrl>#redDot</styleUrl>
    <description>
      0.489000
    </description>
    <Point>
      <coordinates>-3.300871,55.935069,5</coordinates>
    </Point>
  </Placemark>
    
     <Placemark>
    <name>Shirley</name>
    <styleUrl>#redDot</styleUrl>
    <description>
      2.867000
    </description>
    <Point>
      <coordinates>-1.834213,52.409868,5</coordinates>
    </Point>
  </Placemark>
    
     <Placemark>
    <name>Ardwick</name>
    <styleUrl>#redDot</styleUrl>
    <description>
      0.802000
    </description>
    <Point>
      <coordinates>-2.221767,53.467196,5</coordinates>
    </Point>
  </Placemark>
    
     <Placemark>
    <name>Moredun</name>
    <styleUrl>#redDot</styleUrl>
    <description>
      0.605000
    </description>
    <Point>
      <coordinates>-3.136339,55.913620,5</coordinates>
    </Point>
  </Placemark>
    
     <Placemark>
    <name>Easter Road</name>
    <styleUrl>#redDot</styleUrl>
    <description>
      0.479000
    </description>
    <Point>
      <coordinates>-3.170395,55.960692,5</coordinates>
    </Point>
  </Placemark>
    
     <Placemark>
    <name>Piccadilly</name>
    <styleUrl>#redDot</styleUrl>
    <description>
      0.677000
    </description>
    <Point>
      <coordinates>-2.231065,53.479720,5</coordinates>
    </Point>
  </Placemark>
    
     <Placemark>
    <name>Oval</name>
    <styleUrl>#redDot</styleUrl>
    <description>
      1.184000
    </description>
    <Point>
      <coordinates>-0.106380,51.476090,5</coordinates>
    </Point>
  </Placemark>
    
     <Placemark>
    <name>Coleshill</name>
    <styleUrl>#redDot</styleUrl>
    <description>
      1.175000
    </description>
    <Point>
      <coordinates>-1.707473,52.499069,5</coordinates>
    </Point>
  </Placemark>
    
     <Placemark>
    <name>Ilford</name>
    <styleUrl>#redDot</styleUrl>
    <description>
      2.658000
    </description>
    <Point>
      <coordinates>0.079818,51.565186,5</coordinates>
    </Point>
  </Placemark>
    
     <Placemark>
    <name>Brislington</name>
    <styleUrl>#redDot</styleUrl>
    <description>
      0.895000
    </description>
    <Point>
      <coordinates>-2.552280,51.437693,5</coordinates>
    </Point>
  </Placemark>
    
     <Placemark>
    <name>Woodford</name>
    <styleUrl>#redDot</styleUrl>
    <description>
      1.798000
    </description>
    <Point>
      <coordinates>0.031600,51.603163,5</coordinates>
    </Point>
  </Placemark>
    
     <Placemark>
    <name>Hillingdon</name>
    <styleUrl>#redDot</styleUrl>
    <description>
      2.097000
    </description>
    <Point>
      <coordinates>-0.446220,51.528797,5</coordinates>
    </Point>
  </Placemark>
    
     <Placemark>
    <name>Brixton</name>
    <styleUrl>#redDot</styleUrl>
    <description>
      1.529000
    </description>
    <Point>
      <coordinates>-0.115910,51.457895,5</coordinates>
    </Point>
  </Placemark>
    
     <Placemark>
    <name>Burley</name>
    <styleUrl>#redDot</styleUrl>
    <description>
      1.019000
    </description>
    <Point>
      <coordinates>-1.579762,53.810050,5</coordinates>
    </Point>
  </Placemark>
    
     <Placemark>
    <name>Speedwell</name>
    <styleUrl>#redDot</styleUrl>
    <description>
      0.807000
    </description>
    <Point>
      <coordinates>-2.530194,51.465945,5</coordinates>
    </Point>
  </Placemark>
    
     <Placemark>
    <name>Wells Road</name>
    <styleUrl>#redDot</styleUrl>
    <description>
      0.635000
    </description>
    <Point>
      <coordinates>-2.569093,51.436945,5</coordinates>
    </Point>
  </Placemark>
    
     <Placemark>
    <name>Cricklewood</name>
    <styleUrl>#redDot</styleUrl>
    <description>
      1.397000
    </description>
    <Point>
      <coordinates>-0.216278,51.557095,5</coordinates>
    </Point>
  </Placemark>
    
     <Placemark>
    <name>Old St Mellons</name>
    <styleUrl>#redDot</styleUrl>
    <description>
      0.351000
    </description>
    <Point>
      <coordinates>-3.112046,51.529400,5</coordinates>
    </Point>
  </Placemark>
    
     <Placemark>
    <name>Deansgate</name>
    <styleUrl>#redDot</styleUrl>
    <description>
      0.979000
    </description>
    <Point>
      <coordinates>-2.248666,53.479517,5</coordinates>
    </Point>
  </Placemark>
    
     <Placemark>
    <name>Bermondsey</name>
    <styleUrl>#redDot</styleUrl>
    <description>
      2.085000
    </description>
    <Point>
      <coordinates>-0.072600,51.493689,5</coordinates>
    </Point>
  </Placemark>
    
     <Placemark>
    <name>Uddingston</name>
    <styleUrl>#redDot</styleUrl>
    <description>
      1.844000
    </description>
    <Point>
      <coordinates>-4.072276,55.826753,5</coordinates>
    </Point>
  </Placemark>
    
     <Placemark>
    <name>New Town</name>
    <styleUrl>#redDot</styleUrl>
    <description>
      1.197000
    </description>
    <Point>
      <coordinates>-3.196787,55.957602,5</coordinates>
    </Point>
  </Placemark>
    
     <Placemark>
    <name>Castlemilk</name>
    <styleUrl>#redDot</styleUrl>
    <description>
      1.645000
    </description>
    <Point>
      <coordinates>-4.230822,55.806421,5</coordinates>
    </Point>
  </Placemark>
    
     <Placemark>
    <name>Kirkstall</name>
    <styleUrl>#redDot</styleUrl>
    <description>
      2.129000
    </description>
    <Point>
      <coordinates>-1.597448,53.816812,5</coordinates>
    </Point>
  </Placemark>
    
     <Placemark>
    <name>South Kensington</name>
    <styleUrl>#redDot</styleUrl>
    <description>
      1.238000
    </description>
    <Point>
      <coordinates>-0.178440,51.492128,5</coordinates>
    </Point>
  </Placemark>
    
     <Placemark>
    <name>Bruntsfield</name>
    <styleUrl>#redDot</styleUrl>
    <description>
      0.562000
    </description>
    <Point>
      <coordinates>-3.208301,55.937731,5</coordinates>
    </Point>
  </Placemark>
    
     <Placemark>
    <name>Frankley</name>
    <styleUrl>#redDot</styleUrl>
    <description>
      1.143000
    </description>
    <Point>
      <coordinates>-2.014115,52.403837,5</coordinates>
    </Point>
  </Placemark>
    
     <Placemark>
    <name>Holloway</name>
    <styleUrl>#redDot</styleUrl>
    <description>
      0.964000
    </description>
    <Point>
      <coordinates>-0.119437,51.556561,5</coordinates>
    </Point>
  </Placemark>
    
     <Placemark>
    <name>Birchgrove</name>
    <styleUrl>#redDot</styleUrl>
    <description>
      0.408000
    </description>
    <Point>
      <coordinates>-3.200411,51.513162,5</coordinates>
    </Point>
  </Placemark>
    
     <Placemark>
    <name>Belfast City Centre</name>
    <styleUrl>#redDot</styleUrl>
    <description>
      1.442000
    </description>
    <Point>
      <coordinates>-5.930061,54.596189,5</coordinates>
    </Point>
  </Placemark>
    
     <Placemark>
    <name>Greenwich</name>
    <styleUrl>#redDot</styleUrl>
    <description>
      4.389000
    </description>
    <Point>
      <coordinates>0.026946,51.477102,5</coordinates>
    </Point>
  </Placemark>
    
     <Placemark>
    <name>Longbridge</name>
    <styleUrl>#redDot</styleUrl>
    <description>
      1.496000
    </description>
    <Point>
      <coordinates>-1.976989,52.396738,5</coordinates>
    </Point>
  </Placemark>
    
     <Placemark>
    <name>Hucknall</name>
    <styleUrl>#redDot</styleUrl>
    <description>
      2.102000
    </description>
    <Point>
      <coordinates>-1.209955,53.034522,5</coordinates>
    </Point>
  </Placemark>
    
     <Placemark>
    <name>Kings Cross</name>
    <styleUrl>#redDot</styleUrl>
    <description>
      1.421000
    </description>
    <Point>
      <coordinates>-0.121929,51.529422,5</coordinates>
    </Point>
  </Placemark>
    
     <Placemark>
    <name>South East London</name>
    <styleUrl>#redDot</styleUrl>
    <description>
      14.290000
    </description>
    <Point>
      <coordinates>-0.004483,51.440180,5</coordinates>
    </Point>
  </Placemark>
    
     <Placemark>
    <name>Arnold</name>
    <styleUrl>#redDot</styleUrl>
    <description>
      1.978000
    </description>
    <Point>
      <coordinates>-1.129569,53.001251,5</coordinates>
    </Point>
  </Placemark>
    
     <Placemark>
    <name>Southgate</name>
    <styleUrl>#redDot</styleUrl>
    <description>
      1.404000
    </description>
    <Point>
      <coordinates>-0.130728,51.631213,5</coordinates>
    </Point>
  </Placemark>
    
     <Placemark>
    <name>Forest Gate</name>
    <styleUrl>#redDot</styleUrl>
    <description>
      1.366000
    </description>
    <Point>
      <coordinates>0.028013,51.545505,5</coordinates>
    </Point>
  </Placemark>
    
     <Placemark>
    <name>Southmead</name>
    <styleUrl>#redDot</styleUrl>
    <description>
      0.979000
    </description>
    <Point>
      <coordinates>-2.598719,51.501309,5</coordinates>
    </Point>
  </Placemark>
    
     <Placemark>
    <name>East End</name>
    <styleUrl>#redDot</styleUrl>
    <description>
      8.482000
    </description>
    <Point>
      <coordinates>-4.194382,55.857464,5</coordinates>
    </Point>
  </Placemark>
    
     <Placemark>
    <name>Marchmont</name>
    <styleUrl>#redDot</styleUrl>
    <description>
      0.509000
    </description>
    <Point>
      <coordinates>-3.195407,55.936736,5</coordinates>
    </Point>
  </Placemark>
    
     <Placemark>
    <name>Feltham</name>
    <styleUrl>#redDot</styleUrl>
    <description>
      2.075000
    </description>
    <Point>
      <coordinates>-0.409884,51.444386,5</coordinates>
    </Point>
  </Placemark>
    
     <Placemark>
    <name>Wortley</name>
    <styleUrl>#redDot</styleUrl>
    <description>
      1.540000
    </description>
    <Point>
      <coordinates>-1.591246,53.788270,5</coordinates>
    </Point>
  </Placemark>
    
     <Placemark>
    <name>Bilborough</name>
    <styleUrl>#redDot</styleUrl>
    <description>
      1.471000
    </description>
    <Point>
      <coordinates>-1.225110,52.963770,5</coordinates>
    </Point>
  </Placemark>
    
     <Placemark>
    <name>Queens Park</name>
    <styleUrl>#redDot</styleUrl>
    <description>
      0.565000
    </description>
    <Point>
      <coordinates>-4.266422,55.835796,5</coordinates>
    </Point>
  </Placemark>
    
     <Placemark>
    <name>Luton</name>
    <styleUrl>#redDot</styleUrl>
    <description>
      7.709000
    </description>
    <Point>
      <coordinates>-0.430391,51.893044,5</coordinates>
    </Point>
  </Placemark>
    
     <Placemark>
    <name>Downend</name>
    <styleUrl>#redDot</styleUrl>
    <description>
      1.715000
    </description>
    <Point>
      <coordinates>-2.504961,51.487419,5</coordinates>
    </Point>
  </Placemark>
    
     <Placemark>
    <name>Newton Heath</name>
    <styleUrl>#redDot</styleUrl>
    <description>
      1.201000
    </description>
    <Point>
      <coordinates>-2.179978,53.498222,5</coordinates>
    </Point>
  </Placemark>
    
     <Placemark>
    <name>Royal Mile</name>
    <styleUrl>#redDot</styleUrl>
    <description>
      0.805000
    </description>
    <Point>
      <coordinates>-3.187938,55.949575,5</coordinates>
    </Point>
  </Placemark>
    
     <Placemark>
    <name>Newport Road</name>
    <styleUrl>#redDot</styleUrl>
    <description>
      1.358000
    </description>
    <Point>
      <coordinates>-3.156444,51.487490,5</coordinates>
    </Point>
  </Placemark>
    
     <Placemark>
    <name>South Croydon</name>
    <styleUrl>#redDot</styleUrl>
    <description>
      2.531000
    </description>
    <Point>
      <coordinates>-0.092067,51.353041,5</coordinates>
    </Point>
  </Placemark>
    
     <Placemark>
    <name>Arboretum</name>
    <styleUrl>#redDot</styleUrl>
    <description>
      0.812000
    </description>
    <Point>
      <coordinates>-1.159421,52.960745,5</coordinates>
    </Point>
  </Placemark>
    
     <Placemark>
    <name>Hillington</name>
    <styleUrl>#redDot</styleUrl>
    <description>
      0.594000
    </description>
    <Point>
      <coordinates>-4.358767,55.850345,5</coordinates>
    </Point>
  </Placemark>
    
     <Placemark>
    <name>Dean Village</name>
    <styleUrl>#redDot</styleUrl>
    <description>
      0.142000
    </description>
    <Point>
      <coordinates>-3.218350,55.951700,5</coordinates>
    </Point>
  </Placemark>
    
     <Placemark>
    <name>Westbury Park</name>
    <styleUrl>#redDot</styleUrl>
    <description>
      0.451000
    </description>
    <Point>
      <coordinates>-2.609319,51.478285,5</coordinates>
    </Point>
  </Placemark>
    
     <Placemark>
    <name>Long Ashton</name>
    <styleUrl>#redDot</styleUrl>
    <description>
      1.085000
    </description>
    <Point>
      <coordinates>-2.661778,51.429829,5</coordinates>
    </Point>
  </Placemark>
    
     <Placemark>
    <name>Dartford</name>
    <styleUrl>#redDot</styleUrl>
    <description>
      3.859000
    </description>
    <Point>
      <coordinates>0.214044,51.445122,5</coordinates>
    </Point>
  </Placemark>
    
     <Placemark>
    <name>Sherwood Rise</name>
    <styleUrl>#redDot</styleUrl>
    <description>
      0.408000
    </description>
    <Point>
      <coordinates>-1.159836,52.971598,5</coordinates>
    </Point>
  </Placemark>
    
     <Placemark>
    <name>Andersonstown</name>
    <styleUrl>#redDot</styleUrl>
    <description>
      1.490000
    </description>
    <Point>
      <coordinates>-5.996753,54.575501,5</coordinates>
    </Point>
  </Placemark>
    
     <Placemark>
    <name>Norwood</name>
    <styleUrl>#redDot</styleUrl>
    <description>
      1.993000
    </description>
    <Point>
      <coordinates>-0.088553,51.414931,5</coordinates>
    </Point>
  </Placemark>
    
     <Placemark>
    <name>Highgate</name>
    <styleUrl>#redDot</styleUrl>
    <description>
      1.347000
    </description>
    <Point>
      <coordinates>-0.140481,51.570748,5</coordinates>
    </Point>
  </Placemark>
    
     <Placemark>
    <name>Jewellery Quarter</name>
    <styleUrl>#redDot</styleUrl>
    <description>
      0.443000
    </description>
    <Point>
      <coordinates>-1.909961,52.485631,5</coordinates>
    </Point>
  </Placemark>
    
     <Placemark>
    <name>Cathcart</name>
    <styleUrl>#redDot</styleUrl>
    <description>
      0.452000
    </description>
    <Point>
      <coordinates>-4.261660,55.818795,5</coordinates>
    </Point>
  </Placemark>
    
     <Placemark>
    <name>Dennistoun</name>
    <styleUrl>#redDot</styleUrl>
    <description>
      1.096000
    </description>
    <Point>
      <coordinates>-4.215058,55.860754,5</coordinates>
    </Point>
  </Placemark>
    
     <Placemark>
    <name>Greenford</name>
    <styleUrl>#redDot</styleUrl>
    <description>
      2.484000
    </description>
    <Point>
      <coordinates>-0.351428,51.533711,5</coordinates>
    </Point>
  </Placemark>
    
     <Placemark>
    <name>Old Swan</name>
    <styleUrl>#redDot</styleUrl>
    <description>
      0.860000
    </description>
    <Point>
      <coordinates>-2.915165,53.414207,5</coordinates>
    </Point>
  </Placemark>
    
     <Placemark>
    <name>Haringey</name>
    <styleUrl>#redDot</styleUrl>
    <description>
      1.744000
    </description>
    <Point>
      <coordinates>-0.097921,51.584972,5</coordinates>
    </Point>
  </Placemark>
    
     <Placemark>
    <name>Anfield</name>
    <styleUrl>#redDot</styleUrl>
    <description>
      1.348000
    </description>
    <Point>
      <coordinates>-2.952774,53.426967,5</coordinates>
    </Point>
  </Placemark>
    
     <Placemark>
    <name>London Road</name>
    <styleUrl>#redDot</styleUrl>
    <description>
      1.274000
    </description>
    <Point>
      <coordinates>-3.168908,55.957224,5</coordinates>
    </Point>
  </Placemark>
    
     <Placemark>
    <name>Kensington</name>
    <styleUrl>#redDot</styleUrl>
    <description>
      0.832000
    </description>
    <Point>
      <coordinates>-2.948825,53.411530,5</coordinates>
    </Point>
  </Placemark>
    
     <Placemark>
    <name>Silverknowes</name>
    <styleUrl>#redDot</styleUrl>
    <description>
      0.815000
    </description>
    <Point>
      <coordinates>-3.266784,55.968305,5</coordinates>
    </Point>
  </Placemark>
    
     <Placemark>
    <name>Poplar</name>
    <styleUrl>#redDot</styleUrl>
    <description>
      1.175000
    </description>
    <Point>
      <coordinates>-0.020169,51.510929,5</coordinates>
    </Point>
  </Placemark>
    
     <Placemark>
    <name>Highgate</name>
    <styleUrl>#redDot</styleUrl>
    <description>
      0.696000
    </description>
    <Point>
      <coordinates>-1.888752,52.465934,5</coordinates>
    </Point>
  </Placemark>
    
     <Placemark>
    <name>Clarkston</name>
    <styleUrl>#redDot</styleUrl>
    <description>
      1.412000
    </description>
    <Point>
      <coordinates>-4.277807,55.789020,5</coordinates>
    </Point>
  </Placemark>
    
     <Placemark>
    <name>Edgware</name>
    <styleUrl>#redDot</styleUrl>
    <description>
      1.548000
    </description>
    <Point>
      <coordinates>-0.271326,51.608536,5</coordinates>
    </Point>
  </Placemark>
    
     <Placemark>
    <name>Druids Heath</name>
    <styleUrl>#redDot</styleUrl>
    <description>
      0.704000
    </description>
    <Point>
      <coordinates>-1.896160,52.405270,5</coordinates>
    </Point>
  </Placemark>
    
     <Placemark>
    <name>Canary Wharf</name>
    <styleUrl>#redDot</styleUrl>
    <description>
      3.522000
    </description>
    <Point>
      <coordinates>-0.025523,51.507652,5</coordinates>
    </Point>
  </Placemark>
    
     <Placemark>
    <name>Queens Park</name>
    <styleUrl>#redDot</styleUrl>
    <description>
      1.254000
    </description>
    <Point>
      <coordinates>-0.205544,51.534602,5</coordinates>
    </Point>
  </Placemark>
    
     <Placemark>
    <name>Niddrie</name>
    <styleUrl>#redDot</styleUrl>
    <description>
      0.448000
    </description>
    <Point>
      <coordinates>-3.121675,55.932596,5</coordinates>
    </Point>
  </Placemark>
    
     <Placemark>
    <name>Knowle</name>
    <styleUrl>#redDot</styleUrl>
    <description>
      1.805000
    </description>
    <Point>
      <coordinates>-2.576107,51.430971,5</coordinates>
    </Point>
  </Placemark>
    
     <Placemark>
    <name>Milton Keynes</name>
    <styleUrl>#redDot</styleUrl>
    <description>
      16.668000
    </description>
    <Point>
      <coordinates>-0.756307,52.028178,5</coordinates>
    </Point>
  </Placemark>
    
     <Placemark>
    <name>Camden Town</name>
    <styleUrl>#redDot</styleUrl>
    <description>
      1.280000
    </description>
    <Point>
      <coordinates>-0.138394,51.537479,5</coordinates>
    </Point>
  </Placemark>
    
     <Placemark>
    <name>Cessnock</name>
    <styleUrl>#redDot</styleUrl>
    <description>
      0.540000
    </description>
    <Point>
      <coordinates>-4.295478,55.851911,5</coordinates>
    </Point>
  </Placemark>
    
     <Placemark>
    <name>Cardonald</name>
    <styleUrl>#redDot</styleUrl>
    <description>
      1.225000
    </description>
    <Point>
      <coordinates>-4.346448,55.845210,5</coordinates>
    </Point>
  </Placemark>
    
     <Placemark>
    <name>Parkhead</name>
    <styleUrl>#redDot</styleUrl>
    <description>
      0.500000
    </description>
    <Point>
      <coordinates>-3.275358,55.922991,5</coordinates>
    </Point>
  </Placemark>
    
     <Placemark>
    <name>Roath</name>
    <styleUrl>#redDot</styleUrl>
    <description>
      1.339000
    </description>
    <Point>
      <coordinates>-3.165474,51.490657,5</coordinates>
    </Point>
  </Placemark>
    
     <Placemark>
    <name>Kensington</name>
    <styleUrl>#redDot</styleUrl>
    <description>
      1.684000
    </description>
    <Point>
      <coordinates>-0.196094,51.497693,5</coordinates>
    </Point>
  </Placemark>
    
     <Placemark>
    <name>Hayes</name>
    <styleUrl>#redDot</styleUrl>
    <description>
      2.103000
    </description>
    <Point>
      <coordinates>-0.415247,51.514262,5</coordinates>
    </Point>
  </Placemark>
    
     <Placemark>
    <name>Winterbourne</name>
    <styleUrl>#redDot</styleUrl>
    <description>
      0.880000
    </description>
    <Point>
      <coordinates>-2.501813,51.522309,5</coordinates>
    </Point>
  </Placemark>
    
     <Placemark>
    <name>Stratford</name>
    <styleUrl>#redDot</styleUrl>
    <description>
      2.611000
    </description>
    <Point>
      <coordinates>0.015068,51.540031,5</coordinates>
    </Point>
  </Placemark>
    
     <Placemark>
    <name>Kings Heath</name>
    <styleUrl>#redDot</styleUrl>
    <description>
      0.696000
    </description>
    <Point>
      <coordinates>-1.892215,52.430383,5</coordinates>
    </Point>
  </Placemark>
    
     <Placemark>
    <name>Kingsdown</name>
    <styleUrl>#redDot</styleUrl>
    <description>
      0.610000
    </description>
    <Point>
      <coordinates>-2.594958,51.461430,5</coordinates>
    </Point>
  </Placemark>
    
     <Placemark>
    <name>Dinas Powys</name>
    <styleUrl>#redDot</styleUrl>
    <description>
      0.918000
    </description>
    <Point>
      <coordinates>-3.212996,51.433561,5</coordinates>
    </Point>
  </Placemark>
    
     <Placemark>
    <name>Sparkhill</name>
    <styleUrl>#redDot</styleUrl>
    <description>
      1.396000
    </description>
    <Point>
      <coordinates>-1.866605,52.453374,5</coordinates>
    </Point>
  </Placemark>
    
     <Placemark>
    <name>Clapham Junction</name>
    <styleUrl>#redDot</styleUrl>
    <description>
      1.608000
    </description>
    <Point>
      <coordinates>-0.164329,51.464198,5</coordinates>
    </Point>
  </Placemark>
    
     <Placemark>
    <name>Kimberley</name>
    <styleUrl>#redDot</styleUrl>
    <description>
      1.354000
    </description>
    <Point>
      <coordinates>-1.258301,52.999095,5</coordinates>
    </Point>
  </Placemark>
    
     <Placemark>
    <name>Notting Hill</name>
    <styleUrl>#redDot</styleUrl>
    <description>
      1.313000
    </description>
    <Point>
      <coordinates>-0.201703,51.513789,5</coordinates>
    </Point>
  </Placemark>
    
     <Placemark>
    <name>Meanwood</name>
    <styleUrl>#redDot</styleUrl>
    <description>
      1.039000
    </description>
    <Point>
      <coordinates>-1.563489,53.828167,5</coordinates>
    </Point>
  </Placemark>
    
     <Placemark>
    <name>Sherwood</name>
    <styleUrl>#redDot</styleUrl>
    <description>
      1.241000
    </description>
    <Point>
      <coordinates>-1.151950,52.979924,5</coordinates>
    </Point>
  </Placemark>
    
     <Placemark>
    <name>Rumney</name>
    <styleUrl>#redDot</styleUrl>
    <description>
      1.504000
    </description>
    <Point>
      <coordinates>-3.121806,51.510749,5</coordinates>
    </Point>
  </Placemark>
    
     <Placemark>
    <name>Finnieston</name>
    <styleUrl>#redDot</styleUrl>
    <description>
      0.748000
    </description>
    <Point>
      <coordinates>-4.281637,55.863333,5</coordinates>
    </Point>
  </Placemark>
    
     <Placemark>
    <name>Stechford</name>
    <styleUrl>#redDot</styleUrl>
    <description>
      1.988000
    </description>
    <Point>
      <coordinates>-1.799715,52.482895,5</coordinates>
    </Point>
  </Placemark>
    
     <Placemark>
    <name>Reading</name>
    <styleUrl>#redDot</styleUrl>
    <description>
      21.821000
    </description>
    <Point>
      <coordinates>-1.008061,51.447684,5</coordinates>
    </Point>
  </Placemark>
    
     <Placemark>
    <name>Clifton</name>
    <styleUrl>#redDot</styleUrl>
    <description>
      1.496000
    </description>
    <Point>
      <coordinates>-1.180650,52.904070,5</coordinates>
    </Point>
  </Placemark>
    
     <Placemark>
    <name>Wembley</name>
    <styleUrl>#redDot</styleUrl>
    <description>
      2.858000
    </description>
    <Point>
      <coordinates>-0.290336,51.557056,5</coordinates>
    </Point>
  </Placemark>
    
     <Placemark>
    <name>Antrim Road</name>
    <styleUrl>#redDot</styleUrl>
    <description>
      1.015000
    </description>
    <Point>
      <coordinates>-5.937129,54.618822,5</coordinates>
    </Point>
  </Placemark>
    
     <Placemark>
    <name>Pollok</name>
    <styleUrl>#redDot</styleUrl>
    <description>
      1.296000
    </description>
    <Point>
      <coordinates>-4.349597,55.826168,5</coordinates>
    </Point>
  </Placemark>
    
     <Placemark>
    <name>Strathbungo</name>
    <styleUrl>#redDot</styleUrl>
    <description>
      0.514000
    </description>
    <Point>
      <coordinates>-4.270341,55.836467,5</coordinates>
    </Point>
  </Placemark>
    
     <Placemark>
    <name>Clapham Common</name>
    <styleUrl>#redDot</styleUrl>
    <description>
      1.336000
    </description>
    <Point>
      <coordinates>-0.137879,51.459710,5</coordinates>
    </Point>
  </Placemark>
    
     <Placemark>
    <name>Clovenstone</name>
    <styleUrl>#redDot</styleUrl>
    <description>
      0.313000
    </description>
    <Point>
      <coordinates>-3.273614,55.911513,5</coordinates>
    </Point>
  </Placemark>
    
     <Placemark>
    <name>Merchant City</name>
    <styleUrl>#redDot</styleUrl>
    <description>
      0.644000
    </description>
    <Point>
      <coordinates>-4.245398,55.858765,5</coordinates>
    </Point>
  </Placemark>
    
     <Placemark>
    <name>Moortown</name>
    <styleUrl>#redDot</styleUrl>
    <description>
      1.866000
    </description>
    <Point>
      <coordinates>-1.535301,53.843505,5</coordinates>
    </Point>
  </Placemark>
    
     <Placemark>
    <name>Collyhurst</name>
    <styleUrl>#redDot</styleUrl>
    <description>
      0.709000
    </description>
    <Point>
      <coordinates>-2.219287,53.495580,5</coordinates>
    </Point>
  </Placemark>
    
     <Placemark>
    <name>Hengrove</name>
    <styleUrl>#redDot</styleUrl>
    <description>
      0.655000
    </description>
    <Point>
      <coordinates>-2.571234,51.421185,5</coordinates>
    </Point>
  </Placemark>
    
     <Placemark>
    <name>Bedminster</name>
    <styleUrl>#redDot</styleUrl>
    <description>
      1.574000
    </description>
    <Point>
      <coordinates>-2.600858,51.438806,5</coordinates>
    </Point>
  </Placemark>
    
     <Placemark>
    <name>Paddington</name>
    <styleUrl>#redDot</styleUrl>
    <description>
      1.461000
    </description>
    <Point>
      <coordinates>-0.178865,51.517786,5</coordinates>
    </Point>
  </Placemark>
    
     <Placemark>
    <name>Hendon</name>
    <styleUrl>#redDot</styleUrl>
    <description>
      1.659000
    </description>
    <Point>
      <coordinates>-0.228651,51.585925,5</coordinates>
    </Point>
  </Placemark>
    
     <Placemark>
    <name>Dundonald</name>
    <styleUrl>#redDot</styleUrl>
    <description>
      3.049000
    </description>
    <Point>
      <coordinates>-5.808610,54.590292,5</coordinates>
    </Point>
  </Placemark>
    
     <Placemark>
    <name>Dowanhill</name>
    <styleUrl>#redDot</styleUrl>
    <description>
      0.567000
    </description>
    <Point>
      <coordinates>-4.297259,55.875979,5</coordinates>
    </Point>
  </Placemark>
    
     <Placemark>
    <name>Fairfield</name>
    <styleUrl>#redDot</styleUrl>
    <description>
      0.883000
    </description>
    <Point>
      <coordinates>-2.941181,53.412669,5</coordinates>
    </Point>
  </Placemark>
    
     <Placemark>
    <name>Camberwell</name>
    <styleUrl>#redDot</styleUrl>
    <description>
      1.309000
    </description>
    <Point>
      <coordinates>-0.087411,51.473761,5</coordinates>
    </Point>
  </Placemark>
    
     <Placemark>
    <name>Middlesbrough</name>
    <styleUrl>#redDot</styleUrl>
    <description>
      15.892000
    </description>
    <Point>
      <coordinates>-1.205845,54.547092,5</coordinates>
    </Point>
  </Placemark>
    
     <Placemark>
    <name>Northolt</name>
    <styleUrl>#redDot</styleUrl>
    <description>
      1.736000
    </description>
    <Point>
      <coordinates>-0.374692,51.542626,5</coordinates>
    </Point>
  </Placemark>
    
     <Placemark>
    <name>Rusholme</name>
    <styleUrl>#redDot</styleUrl>
    <description>
      1.150000
    </description>
    <Point>
      <coordinates>-2.229944,53.453214,5</coordinates>
    </Point>
  </Placemark>
    
     <Placemark>
    <name>West Ealing</name>
    <styleUrl>#redDot</styleUrl>
    <description>
      0.924000
    </description>
    <Point>
      <coordinates>-0.323707,51.510441,5</coordinates>
    </Point>
  </Placemark>
    
     <Placemark>
    <name>Blackley</name>
    <styleUrl>#redDot</styleUrl>
    <description>
      2.459000
    </description>
    <Point>
      <coordinates>-2.212191,53.521411,5</coordinates>
    </Point>
  </Placemark>
    
     <Placemark>
    <name>Slateford Road</name>
    <styleUrl>#redDot</styleUrl>
    <description>
      0.654000
    </description>
    <Point>
      <coordinates>-3.233672,55.932822,5</coordinates>
    </Point>
  </Placemark>
    
     <Placemark>
    <name>Baberton</name>
    <styleUrl>#redDot</styleUrl>
    <description>
      0.584000
    </description>
    <Point>
      <coordinates>-3.287487,55.909821,5</coordinates>
    </Point>
  </Placemark>
    
     <Placemark>
    <name>Eastham</name>
    <styleUrl>#redDot</styleUrl>
    <description>
      1.139000
    </description>
    <Point>
      <coordinates>0.052392,51.532268,5</coordinates>
    </Point>
  </Placemark>
    
     <Placemark>
    <name>Colindale</name>
    <styleUrl>#redDot</styleUrl>
    <description>
      1.110000
    </description>
    <Point>
      <coordinates>-0.251521,51.591346,5</coordinates>
    </Point>
  </Placemark>
    
     <Placemark>
    <name>Ealing Broadway</name>
    <styleUrl>#redDot</styleUrl>
    <description>
      1.433000
    </description>
    <Point>
      <coordinates>-0.310146,51.513213,5</coordinates>
    </Point>
  </Placemark>
    
     <Placemark>
    <name>Olton</name>
    <styleUrl>#redDot</styleUrl>
    <description>
      1.081000
    </description>
    <Point>
      <coordinates>-1.809835,52.439722,5</coordinates>
    </Point>
  </Placemark>
    
     <Placemark>
    <name>Ashley Down</name>
    <styleUrl>#redDot</styleUrl>
    <description>
      0.298000
    </description>
    <Point>
      <coordinates>-2.581485,51.480238,5</coordinates>
    </Point>
  </Placemark>
    
     <Placemark>
    <name>Oxton</name>
    <styleUrl>#redDot</styleUrl>
    <description>
      1.064000
    </description>
    <Point>
      <coordinates>-3.044886,53.384242,5</coordinates>
    </Point>
  </Placemark>
    
     <Placemark>
    <name>Moseley</name>
    <styleUrl>#redDot</styleUrl>
    <description>
      2.142000
    </description>
    <Point>
      <coordinates>-1.879335,52.446763,5</coordinates>
    </Point>
  </Placemark>
    
     <Placemark>
    <name>Swindon</name>
    <styleUrl>#redDot</styleUrl>
    <description>
      13.499000
    </description>
    <Point>
      <coordinates>-1.788746,51.570503,5</coordinates>
    </Point>
  </Placemark>
    
     <Placemark>
    <name>Hall Green</name>
    <styleUrl>#redDot</styleUrl>
    <description>
      1.791000
    </description>
    <Point>
      <coordinates>-1.843701,52.432124,5</coordinates>
    </Point>
  </Placemark>
    
     <Placemark>
    <name>Weybridge</name>
    <styleUrl>#redDot</styleUrl>
    <description>
      1.745000
    </description>
    <Point>
      <coordinates>-0.449844,51.369713,5</coordinates>
    </Point>
  </Placemark>
    
     <Placemark>
    <name>Lambeth</name>
    <styleUrl>#redDot</styleUrl>
    <description>
      2.216000
    </description>
    <Point>
      <coordinates>-0.116841,51.467536,5</coordinates>
    </Point>
  </Placemark>
    
     <Placemark>
    <name>Chelmsley Wood</name>
    <styleUrl>#redDot</styleUrl>
    <description>
      1.645000
    </description>
    <Point>
      <coordinates>-1.741474,52.478263,5</coordinates>
    </Point>
  </Placemark>
    
     <Placemark>
    <name>Roseburn</name>
    <styleUrl>#redDot</styleUrl>
    <description>
      0.391000
    </description>
    <Point>
      <coordinates>-3.232797,55.943679,5</coordinates>
    </Point>
  </Placemark>
    
     <Placemark>
    <name>Penylan</name>
    <styleUrl>#redDot</styleUrl>
    <description>
      0.634000
    </description>
    <Point>
      <coordinates>-3.157294,51.496948,5</coordinates>
    </Point>
  </Placemark>
    
     <Placemark>
    <name>Muswell Hill</name>
    <styleUrl>#redDot</styleUrl>
    <description>
      1.265000
    </description>
    <Point>
      <coordinates>-0.142461,51.593620,5</coordinates>
    </Point>
  </Placemark>
    
     <Placemark>
    <name>St Pauls</name>
    <styleUrl>#redDot</styleUrl>
    <description>
      0.613000
    </description>
    <Point>
      <coordinates>-2.584182,51.463099,5</coordinates>
    </Point>
  </Placemark>
    
     <Placemark>
    <name>Newtown</name>
    <styleUrl>#redDot</styleUrl>
    <description>
      0.475000
    </description>
    <Point>
      <coordinates>-1.900854,52.494359,5</coordinates>
    </Point>
  </Placemark>
    
     <Placemark>
    <name>Shettleston</name>
    <styleUrl>#redDot</styleUrl>
    <description>
      1.252000
    </description>
    <Point>
      <coordinates>-4.172569,55.851649,5</coordinates>
    </Point>
  </Placemark>
    
     <Placemark>
    <name>Bloomfield</name>
    <styleUrl>#redDot</styleUrl>
    <description>
      0.266000
    </description>
    <Point>
      <coordinates>-5.885868,54.592547,5</coordinates>
    </Point>
  </Placemark>
    
     <Placemark>
    <name>Derby</name>
    <styleUrl>#redDot</styleUrl>
    <description>
      18.104000
    </description>
    <Point>
      <coordinates>-1.463688,52.899221,5</coordinates>
    </Point>
  </Placemark>
    
     <Placemark>
    <name>Beckenham</name>
    <styleUrl>#redDot</styleUrl>
    <description>
      1.765000
    </description>
    <Point>
      <coordinates>-0.033203,51.405379,5</coordinates>
    </Point>
  </Placemark>
    
     <Placemark>
    <name>Marston Green</name>
    <styleUrl>#redDot</styleUrl>
    <description>
      0.952000
    </description>
    <Point>
      <coordinates>-1.742436,52.469247,5</coordinates>
    </Point>
  </Placemark>
    
     <Placemark>
    <name>Selly Park</name>
    <styleUrl>#redDot</styleUrl>
    <description>
      0.724000
    </description>
    <Point>
      <coordinates>-1.916493,52.439366,5</coordinates>
    </Point>
  </Placemark>
    
     <Placemark>
    <name>Llandaff North</name>
    <styleUrl>#redDot</styleUrl>
    <description>
      0.768000
    </description>
    <Point>
      <coordinates>-3.223709,51.503599,5</coordinates>
    </Point>
  </Placemark>
    
     <Placemark>
    <name>Anniesland</name>
    <styleUrl>#redDot</styleUrl>
    <description>
      0.817000
    </description>
    <Point>
      <coordinates>-4.323811,55.892320,5</coordinates>
    </Point>
  </Placemark>
    
     <Placemark>
    <name>Bradford</name>
    <styleUrl>#redDot</styleUrl>
    <description>
      10.513000
    </description>
    <Point>
      <coordinates>-1.769007,53.789839,5</coordinates>
    </Point>
  </Placemark>
    
     <Placemark>
    <name>Grange</name>
    <styleUrl>#redDot</styleUrl>
    <description>
      0.942000
    </description>
    <Point>
      <coordinates>-3.183223,55.932052,5</coordinates>
    </Point>
  </Placemark>
    
     <Placemark>
    <name>Adel</name>
    <styleUrl>#redDot</styleUrl>
    <description>
      1.352000
    </description>
    <Point>
      <coordinates>-1.593246,53.852440,5</coordinates>
    </Point>
  </Placemark>
    
     <Placemark>
    <name>Castlefield</name>
    <styleUrl>#redDot</styleUrl>
    <description>
      0.402000
    </description>
    <Point>
      <coordinates>-2.260581,53.472269,5</coordinates>
    </Point>
  </Placemark>
    
     <Placemark>
    <name>Drylaw</name>
    <styleUrl>#redDot</styleUrl>
    <description>
      0.790000
    </description>
    <Point>
      <coordinates>-3.247737,55.965024,5</coordinates>
    </Point>
  </Placemark>
    
     <Placemark>
    <name>Llanedeyrn</name>
    <styleUrl>#redDot</styleUrl>
    <description>
      0.583000
    </description>
    <Point>
      <coordinates>-3.153123,51.513876,5</coordinates>
    </Point>
  </Placemark>
    
     <Placemark>
    <name>Frenchay</name>
    <styleUrl>#redDot</styleUrl>
    <description>
      1.719000
    </description>
    <Point>
      <coordinates>-2.533367,51.489907,5</coordinates>
    </Point>
  </Placemark>
    
     <Placemark>
    <name>Shirehampton</name>
    <styleUrl>#redDot</styleUrl>
    <description>
      0.727000
    </description>
    <Point>
      <coordinates>-2.677874,51.488841,5</coordinates>
    </Point>
  </Placemark>
    
     <Placemark>
    <name>Sneinton</name>
    <styleUrl>#redDot</styleUrl>
    <description>
      0.638000
    </description>
    <Point>
      <coordinates>-1.125931,52.951189,5</coordinates>
    </Point>
  </Placemark>
    
     <Placemark>
    <name>Chelsea</name>
    <styleUrl>#redDot</styleUrl>
    <description>
      1.844000
    </description>
    <Point>
      <coordinates>-0.176996,51.486668,5</coordinates>
    </Point>
  </Placemark>
    
     <Placemark>
    <name>Meadows</name>
    <styleUrl>#redDot</styleUrl>
    <description>
      0.720000
    </description>
    <Point>
      <coordinates>-1.148699,52.939752,5</coordinates>
    </Point>
  </Placemark>
    
     <Placemark>
    <name>Bow</name>
    <styleUrl>#redDot</styleUrl>
    <description>
      1.631000
    </description>
    <Point>
      <coordinates>-0.030092,51.525045,5</coordinates>
    </Point>
  </Placemark>
    
     <Placemark>
    <name>Willesden Green</name>
    <styleUrl>#redDot</styleUrl>
    <description>
      1.551000
    </description>
    <Point>
      <coordinates>-0.223578,51.549325,5</coordinates>
    </Point>
  </Placemark>
    
     <Placemark>
    <name>Quinton</name>
    <styleUrl>#redDot</styleUrl>
    <description>
      1.555000
    </description>
    <Point>
      <coordinates>-1.991677,52.458160,5</coordinates>
    </Point>
  </Placemark>
    
     <Placemark>
    <name>Woodhouse</name>
    <styleUrl>#redDot</styleUrl>
    <description>
      0.275000
    </description>
    <Point>
      <coordinates>-1.553742,53.815240,5</coordinates>
    </Point>
  </Placemark>
    
     <Placemark>
    <name>Finchley</name>
    <styleUrl>#redDot</styleUrl>
    <description>
      1.739000
    </description>
    <Point>
      <coordinates>-0.184216,51.604505,5</coordinates>
    </Point>
  </Placemark>
    
     <Placemark>
    <name>Holywood</name>
    <styleUrl>#redDot</styleUrl>
    <description>
      2.144000
    </description>
    <Point>
      <coordinates>-5.832667,54.637188,5</coordinates>
    </Point>
  </Placemark>
    
     <Placemark>
    <name>Cheadle</name>
    <styleUrl>#redDot</styleUrl>
    <description>
      2.544000
    </description>
    <Point>
      <coordinates>-2.211211,53.383455,5</coordinates>
    </Point>
  </Placemark>
    
     <Placemark>
    <name>Pinner</name>
    <styleUrl>#redDot</styleUrl>
    <description>
      1.541000
    </description>
    <Point>
      <coordinates>-0.386559,51.592127,5</coordinates>
    </Point>
  </Placemark>
    
     <Placemark>
    <name>Hunslet</name>
    <styleUrl>#redDot</styleUrl>
    <description>
      1.106000
    </description>
    <Point>
      <coordinates>-1.532053,53.774495,5</coordinates>
    </Point>
  </Placemark>
    
     <Placemark>
    <name>Cambuslang</name>
    <styleUrl>#redDot</styleUrl>
    <description>
      3.315000
    </description>
    <Point>
      <coordinates>-4.168165,55.814144,5</coordinates>
    </Point>
  </Placemark>
    
     <Placemark>
    <name>Clifton Village</name>
    <styleUrl>#redDot</styleUrl>
    <description>
      0.327000
    </description>
    <Point>
      <coordinates>-2.620300,51.453661,5</coordinates>
    </Point>
  </Placemark>
    
     <Placemark>
    <name>Thorneywood</name>
    <styleUrl>#redDot</styleUrl>
    <description>
      0.709000
    </description>
    <Point>
      <coordinates>-1.123370,52.963469,5</coordinates>
    </Point>
  </Placemark>
    
     <Placemark>
    <name>Liverpool Street</name>
    <styleUrl>#redDot</styleUrl>
    <description>
      1.181000
    </description>
    <Point>
      <coordinates>-0.072809,51.520567,5</coordinates>
    </Point>
  </Placemark>
    
     <Placemark>
    <name>Lewisham</name>
    <styleUrl>#redDot</styleUrl>
    <description>
      2.641000
    </description>
    <Point>
      <coordinates>-0.014363,51.455087,5</coordinates>
    </Point>
  </Placemark>
    
     <Placemark>
    <name>Summerston</name>
    <styleUrl>#redDot</styleUrl>
    <description>
      0.624000
    </description>
    <Point>
      <coordinates>-4.289702,55.902938,5</coordinates>
    </Point>
  </Placemark>
    
     <Placemark>
    <name>Bartley Green</name>
    <styleUrl>#redDot</styleUrl>
    <description>
      1.542000
    </description>
    <Point>
      <coordinates>-1.997945,52.437463,5</coordinates>
    </Point>
  </Placemark>
    
     <Placemark>
    <name>Craigmillar</name>
    <styleUrl>#redDot</styleUrl>
    <description>
      0.625000
    </description>
    <Point>
      <coordinates>-3.140413,55.931359,5</coordinates>
    </Point>
  </Placemark>
    
     <Placemark>
    <name>Birkenhead</name>
    <styleUrl>#redDot</styleUrl>
    <description>
      3.240000
    </description>
    <Point>
      <coordinates>-3.029115,53.384507,5</coordinates>
    </Point>
  </Placemark>
    
     <Placemark>
    <name>Bexleyheath</name>
    <styleUrl>#redDot</styleUrl>
    <description>
      1.989000
    </description>
    <Point>
      <coordinates>0.143482,51.463618,5</coordinates>
    </Point>
  </Placemark>
    
     <Placemark>
    <name>Crosshill</name>
    <styleUrl>#redDot</styleUrl>
    <description>
      0.745000
    </description>
    <Point>
      <coordinates>-4.259801,55.835319,5</coordinates>
    </Point>
  </Placemark>
    
     <Placemark>
    <name>Penny Lane</name>
    <styleUrl>#redDot</styleUrl>
    <description>
      0.432000
    </description>
    <Point>
      <coordinates>-2.916785,53.388715,5</coordinates>
    </Point>
  </Placemark>
    
     <Placemark>
    <name>Fairmilehead</name>
    <styleUrl>#redDot</styleUrl>
    <description>
      1.447000
    </description>
    <Point>
      <coordinates>-3.211206,55.904582,5</coordinates>
    </Point>
  </Placemark>
    
     <Placemark>
    <name>Redland</name>
    <styleUrl>#redDot</styleUrl>
    <description>
      0.991000
    </description>
    <Point>
      <coordinates>-2.605446,51.468788,5</coordinates>
    </Point>
  </Placemark>
    
     <Placemark>
    <name>Bayswater</name>
    <styleUrl>#redDot</styleUrl>
    <description>
      1.197000
    </description>
    <Point>
      <coordinates>-0.182347,51.515187,5</coordinates>
    </Point>
  </Placemark>
    
     <Placemark>
    <name>Wimbledon</name>
    <styleUrl>#redDot</styleUrl>
    <description>
      2.593000
    </description>
    <Point>
      <coordinates>-0.205486,51.419220,5</coordinates>
    </Point>
  </Placemark>
    
     <Placemark>
    <name>Ward End</name>
    <styleUrl>#redDot</styleUrl>
    <description>
      1.123000
    </description>
    <Point>
      <coordinates>-1.831599,52.491533,5</coordinates>
    </Point>
  </Placemark>
    
     <Placemark>
    <name>Waterloo</name>
    <styleUrl>#redDot</styleUrl>
    <description>
      1.109000
    </description>
    <Point>
      <coordinates>-0.103420,51.497759,5</coordinates>
    </Point>
  </Placemark>
    
     <Placemark>
    <name>Middleton</name>
    <styleUrl>#redDot</styleUrl>
    <description>
      1.488000
    </description>
    <Point>
      <coordinates>-1.540813,53.746876,5</coordinates>
    </Point>
  </Placemark>
    
     <Placemark>
    <name>Meadows</name>
    <styleUrl>#redDot</styleUrl>
    <description>
      1.269000
    </description>
    <Point>
      <coordinates>-3.191100,55.940407,5</coordinates>
    </Point>
  </Placemark>
    
     <Placemark>
    <name>Beswick</name>
    <styleUrl>#redDot</styleUrl>
    <description>
      0.710000
    </description>
    <Point>
      <coordinates>-2.197444,53.477309,5</coordinates>
    </Point>
  </Placemark>
    
     <Placemark>
    <name>Hanwell</name>
    <styleUrl>#redDot</styleUrl>
    <description>
      1.122000
    </description>
    <Point>
      <coordinates>-0.334364,51.510773,5</coordinates>
    </Point>
  </Placemark>
    
     <Placemark>
    <name>Kingswood</name>
    <styleUrl>#redDot</styleUrl>
    <description>
      2.360000
    </description>
    <Point>
      <coordinates>-2.510517,51.463088,5</coordinates>
    </Point>
  </Placemark>
    
     <Placemark>
    <name>Burnage</name>
    <styleUrl>#redDot</styleUrl>
    <description>
      1.665000
    </description>
    <Point>
      <coordinates>-2.202892,53.432007,5</coordinates>
    </Point>
  </Placemark>
    
     <Placemark>
    <name>Kitts Green</name>
    <styleUrl>#redDot</styleUrl>
    <description>
      1.657000
    </description>
    <Point>
      <coordinates>-1.782069,52.482039,5</coordinates>
    </Point>
  </Placemark>
    
     <Placemark>
    <name>Radyr</name>
    <styleUrl>#redDot</styleUrl>
    <description>
      1.038000
    </description>
    <Point>
      <coordinates>-3.258461,51.519243,5</coordinates>
    </Point>
  </Placemark>
    
     <Placemark>
    <name>Chapeltown</name>
    <styleUrl>#redDot</styleUrl>
    <description>
      0.661000
    </description>
    <Point>
      <coordinates>-1.528926,53.815687,5</coordinates>
    </Point>
  </Placemark>
    
     <Placemark>
    <name>Whitehall</name>
    <styleUrl>#redDot</styleUrl>
    <description>
      0.766000
    </description>
    <Point>
      <coordinates>-2.553537,51.461989,5</coordinates>
    </Point>
  </Placemark>
    
     <Placemark>
    <name>North Kelvinside</name>
    <styleUrl>#redDot</styleUrl>
    <description>
      0.700000
    </description>
    <Point>
      <coordinates>-4.279663,55.880499,5</coordinates>
    </Point>
  </Placemark>
    
     <Placemark>
    <name>Prestwich</name>
    <styleUrl>#redDot</styleUrl>
    <description>
      1.953000
    </description>
    <Point>
      <coordinates>-2.275450,53.527004,5</coordinates>
    </Point>
  </Placemark>
    
     <Placemark>
    <name>Sciennes</name>
    <styleUrl>#redDot</styleUrl>
    <description>
      0.241000
    </description>
    <Point>
      <coordinates>-3.182864,55.938182,5</coordinates>
    </Point>
  </Placemark>
    
     <Placemark>
    <name>Ashton</name>
    <styleUrl>#redDot</styleUrl>
    <description>
      0.522000
    </description>
    <Point>
      <coordinates>-2.613743,51.438251,5</coordinates>
    </Point>
  </Placemark>
    
     <Placemark>
    <name>Maryhill</name>
    <styleUrl>#redDot</styleUrl>
    <description>
      2.706000
    </description>
    <Point>
      <coordinates>-4.282382,55.884951,5</coordinates>
    </Point>
  </Placemark>
    
     <Placemark>
    <name>Rednal</name>
    <styleUrl>#redDot</styleUrl>
    <description>
      1.539000
    </description>
    <Point>
      <coordinates>-2.006681,52.393430,5</coordinates>
    </Point>
  </Placemark>
    
     <Placemark>
    <name>Cookridge</name>
    <styleUrl>#redDot</styleUrl>
    <description>
      1.100000
    </description>
    <Point>
      <coordinates>-1.614002,53.851547,5</coordinates>
    </Point>
  </Placemark>
    
     <Placemark>
    <name>The Park</name>
    <styleUrl>#redDot</styleUrl>
    <description>
      0.671000
    </description>
    <Point>
      <coordinates>-1.160451,52.950718,5</coordinates>
    </Point>
  </Placemark>
    
     <Placemark>
    <name>Brighton</name>
    <styleUrl>#redDot</styleUrl>
    <description>
      8.174000
    </description>
    <Point>
      <coordinates>-0.136921,50.834233,5</coordinates>
    </Point>
  </Placemark>
    
     <Placemark>
    <name>St Werburghs</name>
    <styleUrl>#redDot</styleUrl>
    <description>
      0.336000
    </description>
    <Point>
      <coordinates>-2.575000,51.469300,5</coordinates>
    </Point>
  </Placemark>
    
     <Placemark>
    <name>Temple Meads</name>
    <styleUrl>#redDot</styleUrl>
    <description>
      2.087000
    </description>
    <Point>
      <coordinates>-2.581144,51.447913,5</coordinates>
    </Point>
  </Placemark>
    
     <Placemark>
    <name>Thornwood</name>
    <styleUrl>#redDot</styleUrl>
    <description>
      0.240000
    </description>
    <Point>
      <coordinates>-4.317663,55.872138,5</coordinates>
    </Point>
  </Placemark>
    
     <Placemark>
    <name>Bonnington</name>
    <styleUrl>#redDot</styleUrl>
    <description>
      0.509000
    </description>
    <Point>
      <coordinates>-3.185340,55.971268,5</coordinates>
    </Point>
  </Placemark>
    
     <Placemark>
    <name>Droylsden</name>
    <styleUrl>#redDot</styleUrl>
    <description>
      1.935000
    </description>
    <Point>
      <coordinates>-2.152203,53.482578,5</coordinates>
    </Point>
  </Placemark>
    
     <Placemark>
    <name>Filton</name>
    <styleUrl>#redDot</styleUrl>
    <description>
      1.067000
    </description>
    <Point>
      <coordinates>-2.571910,51.502633,5</coordinates>
    </Point>
  </Placemark>
    
     <Placemark>
    <name>Blackheath</name>
    <styleUrl>#redDot</styleUrl>
    <description>
      1.858000
    </description>
    <Point>
      <coordinates>0.016745,51.467469,5</coordinates>
    </Point>
  </Placemark>
    
     <Placemark>
    <name>New Gorbals</name>
    <styleUrl>#redDot</styleUrl>
    <description>
      0.771000
    </description>
    <Point>
      <coordinates>-4.246697,55.847141,5</coordinates>
    </Point>
  </Placemark>
    
     <Placemark>
    <name>Allerton</name>
    <styleUrl>#redDot</styleUrl>
    <description>
      0.846000
    </description>
    <Point>
      <coordinates>-2.915405,53.388113,5</coordinates>
    </Point>
  </Placemark>
    
     <Placemark>
    <name>Liverpool City Centre</name>
    <styleUrl>#redDot</styleUrl>
    <description>
      1.587000
    </description>
    <Point>
      <coordinates>-2.980820,53.404991,5</coordinates>
    </Point>
  </Placemark>
    
     <Placemark>
    <name>Pollokshields</name>
    <styleUrl>#redDot</styleUrl>
    <description>
      0.564000
    </description>
    <Point>
      <coordinates>-4.274277,55.841459,5</coordinates>
    </Point>
  </Placemark>
    
     <Placemark>
    <name>Norbury</name>
    <styleUrl>#redDot</styleUrl>
    <description>
      1.230000
    </description>
    <Point>
      <coordinates>-0.120864,51.407063,5</coordinates>
    </Point>
  </Placemark>
    
     <Placemark>
    <name>Pilrig</name>
    <styleUrl>#redDot</styleUrl>
    <description>
      0.496000
    </description>
    <Point>
      <coordinates>-3.180411,55.964614,5</coordinates>
    </Point>
  </Placemark>
    
     <Placemark>
    <name>Rubery</name>
    <styleUrl>#redDot</styleUrl>
    <description>
      1.720000
    </description>
    <Point>
      <coordinates>-2.011512,52.397423,5</coordinates>
    </Point>
  </Placemark>
    
     <Placemark>
    <name>Fairwater</name>
    <styleUrl>#redDot</styleUrl>
    <description>
      1.240000
    </description>
    <Point>
      <coordinates>-3.242022,51.491018,5</coordinates>
    </Point>
  </Placemark>
    
     <Placemark>
    <name>Gilmerton</name>
    <styleUrl>#redDot</styleUrl>
    <description>
      1.785000
    </description>
    <Point>
      <coordinates>-3.145269,55.910927,5</coordinates>
    </Point>
  </Placemark>
    
     <Placemark>
    <name>Central London</name>
    <styleUrl>#redDot</styleUrl>
    <description>
      5.509000
    </description>
    <Point>
      <coordinates>-0.129726,51.513189,5</coordinates>
    </Point>
  </Placemark>
    
     <Placemark>
    <name>Thornliebank</name>
    <styleUrl>#redDot</styleUrl>
    <description>
      1.341000
    </description>
    <Point>
      <coordinates>-4.320204,55.807600,5</coordinates>
    </Point>
  </Placemark>
    
     <Placemark>
    <name>Turnpike Lane</name>
    <styleUrl>#redDot</styleUrl>
    <description>
      1.185000
    </description>
    <Point>
      <coordinates>-0.098820,51.588996,5</coordinates>
    </Point>
  </Placemark>
    
     <Placemark>
    <name>Newington</name>
    <styleUrl>#redDot</styleUrl>
    <description>
      0.613000
    </description>
    <Point>
      <coordinates>-3.180388,55.940606,5</coordinates>
    </Point>
  </Placemark>
    
     <Placemark>
    <name>St Anns</name>
    <styleUrl>#redDot</styleUrl>
    <description>
      1.138000
    </description>
    <Point>
      <coordinates>-1.134093,52.963780,5</coordinates>
    </Point>
  </Placemark>
    
     <Placemark>
    <name>Seven Sisters</name>
    <styleUrl>#redDot</styleUrl>
    <description>
      1.080000
    </description>
    <Point>
      <coordinates>-0.074946,51.586237,5</coordinates>
    </Point>
  </Placemark>
    
     <Placemark>
    <name>Wood Green</name>
    <styleUrl>#redDot</styleUrl>
    <description>
      1.536000
    </description>
    <Point>
      <coordinates>-0.103158,51.597057,5</coordinates>
    </Point>
  </Placemark>
    
     <Placemark>
    <name>Kingston</name>
    <styleUrl>#redDot</styleUrl>
    <description>
      3.055000
    </description>
    <Point>
      <coordinates>-0.290778,51.402627,5</coordinates>
    </Point>
  </Placemark>
    
     <Placemark>
    <name>Moss Side</name>
    <styleUrl>#redDot</styleUrl>
    <description>
      0.972000
    </description>
    <Point>
      <coordinates>-2.242916,53.454854,5</coordinates>
    </Point>
  </Placemark>
    
     <Placemark>
    <name>Leyton</name>
    <styleUrl>#redDot</styleUrl>
    <description>
      1.785000
    </description>
    <Point>
      <coordinates>-0.006120,51.567632,5</coordinates>
    </Point>
  </Placemark>
    
     <Placemark>
    <name>Rodley</name>
    <styleUrl>#redDot</styleUrl>
    <description>
      1.295000
    </description>
    <Point>
      <coordinates>-1.654537,53.819564,5</coordinates>
    </Point>
  </Placemark>
    
     <Placemark>
    <name>Woolwich</name>
    <styleUrl>#redDot</styleUrl>
    <description>
      2.168000
    </description>
    <Point>
      <coordinates>0.072921,51.486857,5</coordinates>
    </Point>
  </Placemark>
    
     <Placemark>
    <name>Grassmarket</name>
    <styleUrl>#redDot</styleUrl>
    <description>
      0.430000
    </description>
    <Point>
      <coordinates>-3.198803,55.946438,5</coordinates>
    </Point>
  </Placemark>
    
     <Placemark>
    <name>Wallington</name>
    <styleUrl>#redDot</styleUrl>
    <description>
      1.261000
    </description>
    <Point>
      <coordinates>-0.145572,51.360689,5</coordinates>
    </Point>
  </Placemark>
    
     <Placemark>
    <name>St Fagans</name>
    <styleUrl>#redDot</styleUrl>
    <description>
      0.520000
    </description>
    <Point>
      <coordinates>-3.267124,51.476629,5</coordinates>
    </Point>
  </Placemark>
    
     <Placemark>
    <name>Greenbank</name>
    <styleUrl>#redDot</styleUrl>
    <description>
      0.310000
    </description>
    <Point>
      <coordinates>-2.558938,51.466386,5</coordinates>
    </Point>
  </Placemark>
    
     <Placemark>
    <name>Cameron Toll</name>
    <styleUrl>#redDot</styleUrl>
    <description>
      0.887000
    </description>
    <Point>
      <coordinates>-3.158640,55.925368,5</coordinates>
    </Point>
  </Placemark>
    
     <Placemark>
    <name>Llandaff</name>
    <styleUrl>#redDot</styleUrl>
    <description>
      1.746000
    </description>
    <Point>
      <coordinates>-3.224419,51.492864,5</coordinates>
    </Point>
  </Placemark>
    
     <Placemark>
    <name>Upper Knowle</name>
    <styleUrl>#redDot</styleUrl>
    <description>
      0.399000
    </description>
    <Point>
      <coordinates>-2.565996,51.434971,5</coordinates>
    </Point>
  </Placemark>
    
     <Placemark>
    <name>Headingley</name>
    <styleUrl>#redDot</styleUrl>
    <description>
      1.477000
    </description>
    <Point>
      <coordinates>-1.577738,53.817195,5</coordinates>
    </Point>
  </Placemark>
    
     <Placemark>
    <name>Broomhill</name>
    <styleUrl>#redDot</styleUrl>
    <description>
      0.425000
    </description>
    <Point>
      <coordinates>-4.319790,55.875853,5</coordinates>
    </Point>
  </Placemark>
    
     <Placemark>
    <name>Hodge Hill</name>
    <styleUrl>#redDot</styleUrl>
    <description>
      1.398000
    </description>
    <Point>
      <coordinates>-1.809822,52.499197,5</coordinates>
    </Point>
  </Placemark>
    
     <Placemark>
    <name>University Area</name>
    <styleUrl>#redDot</styleUrl>
    <description>
      0.668000
    </description>
    <Point>
      <coordinates>-5.928746,54.585102,5</coordinates>
    </Point>
  </Placemark>
    
     <Placemark>
    <name>Ferry Road</name>
    <styleUrl>#redDot</styleUrl>
    <description>
      3.378000
    </description>
    <Point>
      <coordinates>-3.217330,55.971239,5</coordinates>
    </Point>
  </Placemark>
    
     <Placemark>
    <name>Great Barr</name>
    <styleUrl>#redDot</styleUrl>
    <description>
      3.721000
    </description>
    <Point>
      <coordinates>-1.907624,52.542090,5</coordinates>
    </Point>
  </Placemark>
    
     <Placemark>
    <name>Blantyre</name>
    <styleUrl>#redDot</styleUrl>
    <description>
      1.669000
    </description>
    <Point>
      <coordinates>-4.095529,55.789156,5</coordinates>
    </Point>
  </Placemark>
    
     <Placemark>
    <name>Danderhall</name>
    <styleUrl>#redDot</styleUrl>
    <description>
      0.537000
    </description>
    <Point>
      <coordinates>-3.109650,55.913345,5</coordinates>
    </Point>
  </Placemark>
    
     <Placemark>
    <name>Sheldon</name>
    <styleUrl>#redDot</styleUrl>
    <description>
      1.788000
    </description>
    <Point>
      <coordinates>-1.783702,52.462610,5</coordinates>
    </Point>
  </Placemark>
    
     <Placemark>
    <name>Yoker</name>
    <styleUrl>#redDot</styleUrl>
    <description>
      0.873000
    </description>
    <Point>
      <coordinates>-4.377335,55.887426,5</coordinates>
    </Point>
  </Placemark>
    
     <Placemark>
    <name>Baguley</name>
    <styleUrl>#redDot</styleUrl>
    <description>
      1.398000
    </description>
    <Point>
      <coordinates>-2.287944,53.396682,5</coordinates>
    </Point>
  </Placemark>
    
     <Placemark>
    <name>Streatham</name>
    <styleUrl>#redDot</styleUrl>
    <description>
      1.597000
    </description>
    <Point>
      <coordinates>-0.128108,51.426399,5</coordinates>
    </Point>
  </Placemark>
    
     <Placemark>
    <name>Henbury</name>
    <styleUrl>#redDot</styleUrl>
    <description>
      1.376000
    </description>
    <Point>
      <coordinates>-2.622678,51.507841,5</coordinates>
    </Point>
  </Placemark>
    
     <Placemark>
    <name>Erdington</name>
    <styleUrl>#redDot</styleUrl>
    <description>
      2.490000
    </description>
    <Point>
      <coordinates>-1.848035,52.525209,5</coordinates>
    </Point>
  </Placemark>
    
     <Placemark>
    <name>Small Heath</name>
    <styleUrl>#redDot</styleUrl>
    <description>
      1.691000
    </description>
    <Point>
      <coordinates>-1.850917,52.471060,5</coordinates>
    </Point>
  </Placemark>
    
     <Placemark>
    <name>Milton</name>
    <styleUrl>#redDot</styleUrl>
    <description>
      0.701000
    </description>
    <Point>
      <coordinates>-4.247152,55.897810,5</coordinates>
    </Point>
  </Placemark>
    
     <Placemark>
    <name>Parkhead</name>
    <styleUrl>#redDot</styleUrl>
    <description>
      0.702000
    </description>
    <Point>
      <coordinates>-4.194899,55.850099,5</coordinates>
    </Point>
  </Placemark>
    
     <Placemark>
    <name>Bournville</name>
    <styleUrl>#redDot</styleUrl>
    <description>
      2.200000
    </description>
    <Point>
      <coordinates>-1.938215,52.424064,5</coordinates>
    </Point>
  </Placemark>
    
     <Placemark>
    <name>Murrayfield</name>
    <styleUrl>#redDot</styleUrl>
    <description>
      1.815000
    </description>
    <Point>
      <coordinates>-3.239807,55.944069,5</coordinates>
    </Point>
  </Placemark>
    
     <Placemark>
    <name>Dunkirk</name>
    <styleUrl>#redDot</styleUrl>
    <description>
      0.262000
    </description>
    <Point>
      <coordinates>-1.182559,52.938930,5</coordinates>
    </Point>
  </Placemark>
    
     <Placemark>
    <name>Salford</name>
    <styleUrl>#redDot</styleUrl>
    <description>
      4.919000
    </description>
    <Point>
      <coordinates>-2.269090,53.489704,5</coordinates>
    </Point>
  </Placemark>
    
     <Placemark>
    <name>Norwich</name>
    <styleUrl>#redDot</styleUrl>
    <description>
      33.930000
    </description>
    <Point>
      <coordinates>1.274581,52.660615,5</coordinates>
    </Point>
  </Placemark>
    
     <Placemark>
    <name>Mitcham</name>
    <styleUrl>#redDot</styleUrl>
    <description>
      1.973000
    </description>
    <Point>
      <coordinates>-0.158249,51.407882,5</coordinates>
    </Point>
  </Placemark>
    
     <Placemark>
    <name>Willowbrae</name>
    <styleUrl>#redDot</styleUrl>
    <description>
      0.842000
    </description>
    <Point>
      <coordinates>-3.142548,55.950806,5</coordinates>
    </Point>
  </Placemark>
    
     <Placemark>
    <name>Kenton</name>
    <styleUrl>#redDot</styleUrl>
    <description>
      1.332000
    </description>
    <Point>
      <coordinates>-0.304361,51.585046,5</coordinates>
    </Point>
  </Placemark>
    
     <Placemark>
    <name>Hammersmith</name>
    <styleUrl>#redDot</styleUrl>
    <description>
      2.266000
    </description>
    <Point>
      <coordinates>-0.224267,51.492476,5</coordinates>
    </Point>
  </Placemark>
    
     <Placemark>
    <name>Longstone</name>
    <styleUrl>#redDot</styleUrl>
    <description>
      0.837000
    </description>
    <Point>
      <coordinates>-3.261863,55.923856,5</coordinates>
    </Point>
  </Placemark>
    
     <Placemark>
    <name>Crewe Toll</name>
    <styleUrl>#redDot</styleUrl>
    <description>
      0.600000
    </description>
    <Point>
      <coordinates>-3.238434,55.970460,5</coordinates>
    </Point>
  </Placemark>
    
     <Placemark>
    <name>Oakwood</name>
    <styleUrl>#redDot</styleUrl>
    <description>
      1.304000
    </description>
    <Point>
      <coordinates>-1.500054,53.822396,5</coordinates>
    </Point>
  </Placemark>
    
     <Placemark>
    <name>Tower Bridge</name>
    <styleUrl>#redDot</styleUrl>
    <description>
      1.383000
    </description>
    <Point>
      <coordinates>-0.074862,51.497354,5</coordinates>
    </Point>
  </Placemark>
    
     <Placemark>
    <name>Harbourside</name>
    <styleUrl>#redDot</styleUrl>
    <description>
      1.214000
    </description>
    <Point>
      <coordinates>-2.597111,51.451399,5</coordinates>
    </Point>
  </Placemark>
    
     <Placemark>
    <name>Neasden</name>
    <styleUrl>#redDot</styleUrl>
    <description>
      1.269000
    </description>
    <Point>
      <coordinates>-0.246895,51.554498,5</coordinates>
    </Point>
  </Placemark>
    
     <Placemark>
    <name>Wanstead</name>
    <styleUrl>#redDot</styleUrl>
    <description>
      1.421000
    </description>
    <Point>
      <coordinates>0.024258,51.575319,5</coordinates>
    </Point>
  </Placemark>
    
     <Placemark>
    <name>Catford</name>
    <styleUrl>#redDot</styleUrl>
    <description>
      1.510000
    </description>
    <Point>
      <coordinates>-0.016160,51.439304,5</coordinates>
    </Point>
  </Placemark>
    
     <Placemark>
    <name>Malone</name>
    <styleUrl>#redDot</styleUrl>
    <description>
      1.368000
    </description>
    <Point>
      <coordinates>-5.944899,54.576422,5</coordinates>
    </Point>
  </Placemark>
    
     <Placemark>
    <name>Whitechapel</name>
    <styleUrl>#redDot</styleUrl>
    <description>
      1.384000
    </description>
    <Point>
      <coordinates>-0.055920,51.517508,5</coordinates>
    </Point>
  </Placemark>
    
     <Placemark>
    <name>South West London</name>
    <styleUrl>#redDot</styleUrl>
    <description>
      17.826000
    </description>
    <Point>
      <coordinates>-0.224018,51.432422,5</coordinates>
    </Point>
  </Placemark>
    
     <Placemark>
    <name>Castle Vale</name>
    <styleUrl>#redDot</styleUrl>
    <description>
      0.698000
    </description>
    <Point>
      <coordinates>-1.788459,52.518704,5</coordinates>
    </Point>
  </Placemark>
    
     <Placemark>
    <name>Giffnock</name>
    <styleUrl>#redDot</styleUrl>
    <description>
      1.638000
    </description>
    <Point>
      <coordinates>-4.295229,55.805428,5</coordinates>
    </Point>
  </Placemark>
    
     <Placemark>
    <name>Seacroft</name>
    <styleUrl>#redDot</styleUrl>
    <description>
      1.175000
    </description>
    <Point>
      <coordinates>-1.465519,53.821292,5</coordinates>
    </Point>
  </Placemark>
    
     <Placemark>
    <name>Granton</name>
    <styleUrl>#redDot</styleUrl>
    <description>
      1.660000
    </description>
    <Point>
      <coordinates>-3.230633,55.976366,5</coordinates>
    </Point>
  </Placemark>
    
     <Placemark>
    <name>Gedling</name>
    <styleUrl>#redDot</styleUrl>
    <description>
      1.467000
    </description>
    <Point>
      <coordinates>-1.083953,52.975898,5</coordinates>
    </Point>
  </Placemark>
    
     <Placemark>
    <name>Earlsfield</name>
    <styleUrl>#redDot</styleUrl>
    <description>
      1.144000
    </description>
    <Point>
      <coordinates>-0.188122,51.443841,5</coordinates>
    </Point>
  </Placemark>
    
     <Placemark>
    <name>Cambridge</name>
    <styleUrl>#redDot</styleUrl>
    <description>
      20.877000
    </description>
    <Point>
      <coordinates>0.125367,52.206828,5</coordinates>
    </Point>
  </Placemark>
    
     <Placemark>
    <name>Stapleton</name>
    <styleUrl>#redDot</styleUrl>
    <description>
      1.172000
    </description>
    <Point>
      <coordinates>-2.549514,51.481964,5</coordinates>
    </Point>
  </Placemark>
    
     <Placemark>
    <name>Clydebank</name>
    <styleUrl>#redDot</styleUrl>
    <description>
      3.928000
    </description>
    <Point>
      <coordinates>-4.397571,55.909359,5</coordinates>
    </Point>
  </Placemark>
    
     <Placemark>
    <name>Northern Moor</name>
    <styleUrl>#redDot</styleUrl>
    <description>
      1.190000
    </description>
    <Point>
      <coordinates>-2.285037,53.410545,5</coordinates>
    </Point>
  </Placemark>
    
     <Placemark>
    <name>Epsom</name>
    <styleUrl>#redDot</styleUrl>
    <description>
      2.358000
    </description>
    <Point>
      <coordinates>-0.260969,51.340719,5</coordinates>
    </Point>
  </Placemark>
    
     <Placemark>
    <name>Armley</name>
    <styleUrl>#redDot</styleUrl>
    <description>
      1.591000
    </description>
    <Point>
      <coordinates>-1.593154,53.796209,5</coordinates>
    </Point>
  </Placemark>
    
     <Placemark>
    <name>Ravenhill</name>
    <styleUrl>#redDot</styleUrl>
    <description>
      0.490000
    </description>
    <Point>
      <coordinates>-5.906031,54.587548,5</coordinates>
    </Point>
  </Placemark>
    
     <Placemark>
    <name>Shard End</name>
    <styleUrl>#redDot</styleUrl>
    <description>
      1.692000
    </description>
    <Point>
      <coordinates>-1.777117,52.496465,5</coordinates>
    </Point>
  </Placemark>
    
     <Placemark>
    <name>Wollaton</name>
    <styleUrl>#redDot</styleUrl>
    <description>
      3.132000
    </description>
    <Point>
      <coordinates>-1.202571,52.955170,5</coordinates>
    </Point>
  </Placemark>
    
     <Placemark>
    <name>Broadmead</name>
    <styleUrl>#redDot</styleUrl>
    <description>
      0.627000
    </description>
    <Point>
      <coordinates>-2.589058,51.457037,5</coordinates>
    </Point>
  </Placemark>
    
     <Placemark>
    <name>Sefton Park</name>
    <styleUrl>#redDot</styleUrl>
    <description>
      1.097000
    </description>
    <Point>
      <coordinates>-2.945734,53.383423,5</coordinates>
    </Point>
  </Placemark>
    
     <Placemark>
    <name>Hockley</name>
    <styleUrl>#redDot</styleUrl>
    <description>
      1.846000
    </description>
    <Point>
      <coordinates>-1.913648,52.492217,5</coordinates>
    </Point>
  </Placemark>
    
     <Placemark>
    <name>Ladbroke Grove</name>
    <styleUrl>#redDot</styleUrl>
    <description>
      0.890000
    </description>
    <Point>
      <coordinates>-0.211070,51.519508,5</coordinates>
    </Point>
  </Placemark>
    
     <Placemark>
    <name>Dingle</name>
    <styleUrl>#redDot</styleUrl>
    <description>
      0.516000
    </description>
    <Point>
      <coordinates>-2.964447,53.380927,5</coordinates>
    </Point>
  </Placemark>
    
     <Placemark>
    <name>Hartcliffe</name>
    <styleUrl>#redDot</styleUrl>
    <description>
      1.053000
    </description>
    <Point>
      <coordinates>-2.600265,51.406793,5</coordinates>
    </Point>
  </Placemark>
    
     <Placemark>
    <name>Newcastle</name>
    <styleUrl>#redDot</styleUrl>
    <description>
      59.923000
    </description>
    <Point>
      <coordinates>-1.654414,54.995807,5</coordinates>
    </Point>
  </Placemark>
    
     <Placemark>
    <name>Bellevue</name>
    <styleUrl>#redDot</styleUrl>
    <description>
      0.469000
    </description>
    <Point>
      <coordinates>-3.188928,55.962085,5</coordinates>
    </Point>
  </Placemark>
    
     <Placemark>
    <name>Woodford Green</name>
    <styleUrl>#redDot</styleUrl>
    <description>
      1.722000
    </description>
    <Point>
      <coordinates>0.031493,51.606601,5</coordinates>
    </Point>
  </Placemark>
    
     <Placemark>
    <name>Trowbridge</name>
    <styleUrl>#redDot</styleUrl>
    <description>
      0.545000
    </description>
    <Point>
      <coordinates>-3.106815,51.516609,5</coordinates>
    </Point>
  </Placemark>
    
     <Placemark>
    <name>Lawrence Weston</name>
    <styleUrl>#redDot</styleUrl>
    <description>
      1.649000
    </description>
    <Point>
      <coordinates>-2.661273,51.498894,5</coordinates>
    </Point>
  </Placemark>
    
     <Placemark>
    <name>Robroyston</name>
    <styleUrl>#redDot</styleUrl>
    <description>
      0.886000
    </description>
    <Point>
      <coordinates>-4.189417,55.894646,5</coordinates>
    </Point>
  </Placemark>
    
     <Placemark>
    <name>Watford</name>
    <styleUrl>#redDot</styleUrl>
    <description>
      2.648000
    </description>
    <Point>
      <coordinates>-0.400506,51.659082,5</coordinates>
    </Point>
  </Placemark>
    
     <Placemark>
    <name>Sutton</name>
    <styleUrl>#redDot</styleUrl>
    <description>
      2.466000
    </description>
    <Point>
      <coordinates>-0.190192,51.365229,5</coordinates>
    </Point>
  </Placemark>
    
     <Placemark>
    <name>Marylebone</name>
    <styleUrl>#redDot</styleUrl>
    <description>
      1.457000
    </description>
    <Point>
      <coordinates>-0.152772,51.518558,5</coordinates>
    </Point>
  </Placemark>
    
     <Placemark>
    <name>Colwick</name>
    <styleUrl>#redDot</styleUrl>
    <description>
      0.589000
    </description>
    <Point>
      <coordinates>-1.086867,52.957316,5</coordinates>
    </Point>
  </Placemark>
    
     <Placemark>
    <name>Stockbridge</name>
    <styleUrl>#redDot</styleUrl>
    <description>
      1.115000
    </description>
    <Point>
      <coordinates>-3.210123,55.958056,5</coordinates>
    </Point>
  </Placemark>
    
     <Placemark>
    <name>Poole</name>
    <styleUrl>#redDot</styleUrl>
    <description>
      5.524000
    </description>
    <Point>
      <coordinates>-1.955963,50.728427,5</coordinates>
    </Point>
  </Placemark>
    
     <Placemark>
    <name>Gildersome</name>
    <styleUrl>#redDot</styleUrl>
    <description>
      0.655000
    </description>
    <Point>
      <coordinates>-1.631289,53.758593,5</coordinates>
    </Point>
  </Placemark>
    
     <Placemark>
    <name>Portsmouth</name>
    <styleUrl>#redDot</styleUrl>
    <description>
      4.231000
    </description>
    <Point>
      <coordinates>-1.076580,50.820428,5</coordinates>
    </Point>
  </Placemark>
    
     <Placemark>
    <name>Edinburgh City Centre</name>
    <styleUrl>#redDot</styleUrl>
    <description>
      2.543000
    </description>
    <Point>
      <coordinates>-3.194043,55.951811,5</coordinates>
    </Point>
  </Placemark>
    
     <Placemark>
    <name>Purley</name>
    <styleUrl>#redDot</styleUrl>
    <description>
      1.275000
    </description>
    <Point>
      <coordinates>-0.114192,51.334686,5</coordinates>
    </Point>
  </Placemark>
    
     <Placemark>
    <name>Inverleith</name>
    <styleUrl>#redDot</styleUrl>
    <description>
      0.539000
    </description>
    <Point>
      <coordinates>-3.206948,55.969081,5</coordinates>
    </Point>
  </Placemark>
    
     <Placemark>
    <name>Lisvane</name>
    <styleUrl>#redDot</styleUrl>
    <description>
      0.625000
    </description>
    <Point>
      <coordinates>-3.177827,51.538934,5</coordinates>
    </Point>
  </Placemark>
    
     <Placemark>
    <name>Bordesley Green</name>
    <styleUrl>#redDot</styleUrl>
    <description>
      1.886000
    </description>
    <Point>
      <coordinates>-1.844356,52.478153,5</coordinates>
    </Point>
  </Placemark>
    
     <Placemark>
    <name>Gamston</name>
    <styleUrl>#redDot</styleUrl>
    <description>
      0.442000
    </description>
    <Point>
      <coordinates>-1.103403,52.925911,5</coordinates>
    </Point>
  </Placemark>