display_name,centroid_lat,centroid_long,radius
Stroud,51.736451,-2.207860,5.839183
Newark,53.115472,-0.853341,13.549946
Dumfries,55.069427,-3.616800,13.598766
Burgess Hill,50.957450,-0.132163,1.745370
Accrington,53.754267,-2.373159,3.158004
Cramond,55.971681,-3.303783,0.830000
Plaistow,51.528435,0.025600,1.195000
Childwall,53.396539,-2.893418,2.029000
Dunmurry,54.556648,-6.015721,1.854000
Danescourt,51.502578,-3.239042,0.528000
Hyndland,55.877726,-4.308218,0.713000
Limehouse,51.512370,-0.034406,1.556000
Acton,51.508333,-0.265266,2.195000
Govanhill,55.836548,-4.260837,0.804000
Harehills,53.810909,-1.513273,1.164000
Byres Road,55.873581,-4.295493,0.406000
Broomhouse,55.927672,-3.279462,0.522000
Barnes,51.469125,-0.245564,1.205000
West Heath,52.397386,-1.958686,0.871000
Kingstanding,52.546196,-1.879684,1.505000
Caerau,51.471808,-3.246954,1.117000
Lockleaze,51.489867,-2.564954,0.456000
Bexley,51.456923,0.140653,2.573000
Muirhead,55.902069,-4.107038,0.858000
Govan,55.859345,-4.317563,1.339000
Northenden,53.405920,-2.256928,0.661000
Bristol City Centre,51.455989,-2.592384,1.314000
Hotwells,51.449816,-2.618790,0.537000
Sharston,53.392883,-2.256698,0.611000
Yardley,52.464788,-1.815341,2.092000
Lenton Abbey,52.935845,-1.211689,0.251000
Barrhead,55.800395,-4.391004,1.355000
Sydenham,51.426868,-0.052969,1.198000
Comely Bank,55.957813,-3.219237,0.400000
Oldbury,52.487016,-2.011855,4.207000
Pontcanna,51.484744,-3.198613,0.719000
Upton Park,51.533935,0.036993,0.961000
Bradley Stoke,51.534451,-2.552277,1.802000
Morden,51.392822,-0.195425,1.726000
Currie,55.897535,-3.311474,1.570000
Charing Cross,55.866219,-4.272617,0.407000
Southall,51.508660,-0.377129,1.410000
Nechells,52.493293,-1.872108,1.187000
Heath,51.503713,-3.190474,1.570000
Splott,51.483499,-3.152733,0.865000
Saughton,55.930483,-3.267756,0.517000
Duddingston,55.943281,-3.125526,1.688000
Canton,51.482149,-3.205661,1.476000
Sidcup,51.433093,0.103004,1.622000
Meadowbank,55.955794,-3.158353,1.260000
Bothwell,55.805212,-4.068149,0.783000
Tividale,52.509257,-2.048276,1.113000
Maindy,51.497070,-3.191718,0.441000
Southville,51.441194,-2.606645,0.884000
Billesley,52.424762,-1.867563,0.566000
Levenshulme,53.444110,-2.189987,1.095000
Pudsey,53.800531,-1.665437,2.777000
Brick Lane,51.520494,-0.063535,0.885000
Botanic,54.585454,-5.929157,0.501000
Tooting Broadway,51.424941,-0.163465,0.975000
Morley,53.747199,-1.597814,1.965000
Windmill Hill,51.437298,-2.592255,0.275000
Edmonton,51.621154,-0.061153,1.648000
Leeds,53.808019,-1.541784,25.768000
Sea Mills,51.487754,-2.646831,0.767000
Oxford Road,53.465550,-2.234372,0.955000
Chapel Allerton,53.825749,-1.534327,1.349000
Croftfoot,55.812982,-4.232833,0.982000
Paisley,55.840406,-4.428698,4.134000
Southside,55.943244,-3.182162,0.580000
Wallasey,53.422009,-3.043626,2.130000
Kings Norton,52.407064,-1.932730,3.043000
Gloucester Road,51.473892,-2.589328,1.606000
Enfield,51.647538,-0.069821,3.379000
Old Town,55.947990,-3.187907,0.879000
Trinity,55.975632,-3.201751,1.600000
Sparkbrook,52.458721,-1.870769,0.880000
Gloucester,51.858146,-2.236449,15.199000
Whiteladies Road,51.465547,-2.610878,0.562000
Peckham,51.471610,-0.067469,1.202000
Bromley,51.405256,0.015748,4.669000
Easton,51.464176,-2.564121,0.884000
Atlantic Wharf,51.472532,-3.165826,0.185000
Kinning Park,55.852380,-4.285460,0.657000
East Croydon,51.375836,-0.089750,1.471000
Leckwith,51.473109,-3.201622,0.930000
Kingsknowe,55.917839,-3.263186,0.300000
Marshfield,51.532034,-3.066802,0.566000
Shoreditch,51.528306,-0.073691,1.309000
Radford,52.959655,-1.172073,0.726000
Newhaven,55.976941,-3.189905,0.673000
Bestwood,52.993340,-1.168645,0.511000
Barnton,55.960457,-3.301703,1.382000
North London,51.601942,-0.108871,9.910000
Bath,51.373437,-2.371458,10.195000
New Brighton,53.433426,-3.040202,0.761000
Jordanhill,55.881506,-4.331721,1.294000
Mosspark,55.841266,-4.328649,0.729000
Leicester,52.625621,-1.142292,23.048000
Brentry,51.509271,-2.607433,1.103000
Southfields,51.445862,-0.203636,1.283000
Smiths Wood,52.502456,-1.747064,1.064000
Beeston,52.927760,-1.210340,1.344000
Balgreen,55.938843,-3.252548,0.719000
Failsworth,53.505166,-2.159878,1.661000
Bakersfield,52.959349,-1.110216,0.802000
Beckton,51.518465,0.051766,1.482000
St Andrews,51.469812,-2.588111,0.723000
Didsbury,53.422331,-2.230742,1.825000
Bournemouth,50.739173,-1.865246,8.530000
Finaghy,54.558756,-5.981144,1.004000
Townhead,55.865189,-4.243059,0.228000
Glasgow Green,55.848469,-4.231048,0.565000
Broxtowe,52.977655,-1.214638,0.511000
Tooting,51.426242,-0.159656,1.633000
Glasgow City Centre,55.862099,-4.255772,2.189000
South Gyle,55.935069,-3.300871,0.489000
Shirley,52.409868,-1.834213,2.867000
Ardwick,53.467196,-2.221767,0.802000
Moredun,55.913620,-3.136339,0.605000
Easter Road,55.960692,-3.170395,0.479000
Piccadilly,53.479720,-2.231065,0.677000
Oval,51.476090,-0.106380,1.184000
Coleshill,52.499069,-1.707473,1.175000
Ilford,51.565186,0.079818,2.658000
Brislington,51.437693,-2.552280,0.895000
Woodford,51.603163,0.031600,1.798000
Hillingdon,51.528797,-0.446220,2.097000
Brixton,51.457895,-0.115910,1.529000
Burley,53.810050,-1.579762,1.019000
Speedwell,51.465945,-2.530194,0.807000
Wells Road,51.436945,-2.569093,0.635000
Cricklewood,51.557095,-0.216278,1.397000
Old St Mellons,51.529400,-3.112046,0.351000
Deansgate,53.479517,-2.248666,0.979000
Bermondsey,51.493689,-0.072600,2.085000
Uddingston,55.826753,-4.072276,1.844000
New Town,55.957602,-3.196787,1.197000
Castlemilk,55.806421,-4.230822,1.645000
Kirkstall,53.816812,-1.597448,2.129000
South Kensington,51.492128,-0.178440,1.238000
Bruntsfield,55.937731,-3.208301,0.562000
Frankley,52.403837,-2.014115,1.143000
Holloway,51.556561,-0.119437,0.964000
Birchgrove,51.513162,-3.200411,0.408000
Belfast City Centre,54.596189,-5.930061,1.442000
Greenwich,51.477102,0.026946,4.389000
Longbridge,52.396738,-1.976989,1.496000
Hucknall,53.034522,-1.209955,2.102000
Kings Cross,51.529422,-0.121929,1.421000
South East London,51.440180,-0.004483,14.290000
Arnold,53.001251,-1.129569,1.978000
Southgate,51.631213,-0.130728,1.404000
Forest Gate,51.545505,0.028013,1.366000
Southmead,51.501309,-2.598719,0.979000
East End,55.857464,-4.194382,8.482000
Marchmont,55.936736,-3.195407,0.509000
Feltham,51.444386,-0.409884,2.075000
Wortley,53.788270,-1.591246,1.540000
Bilborough,52.963770,-1.225110,1.471000
Queens Park,55.835796,-4.266422,0.565000
Luton,51.893044,-0.430391,7.709000
Downend,51.487419,-2.504961,1.715000
Newton Heath,53.498222,-2.179978,1.201000
Royal Mile,55.949575,-3.187938,0.805000
Newport Road,51.487490,-3.156444,1.358000
South Croydon,51.353041,-0.092067,2.531000
Arboretum,52.960745,-1.159421,0.812000
Hillington,55.850345,-4.358767,0.594000
Dean Village,55.951700,-3.218350,0.142000
Westbury Park,51.478285,-2.609319,0.451000
Long Ashton,51.429829,-2.661778,1.085000
Dartford,51.445122,0.214044,3.859000
Sherwood Rise,52.971598,-1.159836,0.408000
Andersonstown,54.575501,-5.996753,1.490000
Norwood,51.414931,-0.088553,1.993000
Highgate,51.570748,-0.140481,1.347000
Jewellery Quarter,52.485631,-1.909961,0.443000
Cathcart,55.818795,-4.261660,0.452000
Dennistoun,55.860754,-4.215058,1.096000
Greenford,51.533711,-0.351428,2.484000
Old Swan,53.414207,-2.915165,0.860000
Haringey,51.584972,-0.097921,1.744000
Anfield,53.426967,-2.952774,1.348000
London Road,55.957224,-3.168908,1.274000
Kensington,53.411530,-2.948825,0.832000
Silverknowes,55.968305,-3.266784,0.815000
Poplar,51.510929,-0.020169,1.175000
Highgate,52.465934,-1.888752,0.696000
Clarkston,55.789020,-4.277807,1.412000
Edgware,51.608536,-0.271326,1.548000
Druids Heath,52.405270,-1.896160,0.704000
Canary Wharf,51.507652,-0.025523,3.522000
Queens Park,51.534602,-0.205544,1.254000
Niddrie,55.932596,-3.121675,0.448000
Knowle,51.430971,-2.576107,1.805000
Milton Keynes,52.028178,-0.756307,16.668000
Camden Town,51.537479,-0.138394,1.280000
Cessnock,55.851911,-4.295478,0.540000
Cardonald,55.845210,-4.346448,1.225000
Parkhead,55.922991,-3.275358,0.500000
Roath,51.490657,-3.165474,1.339000
Kensington,51.497693,-0.196094,1.684000
Hayes,51.514262,-0.415247,2.103000
Winterbourne,51.522309,-2.501813,0.880000
Stratford,51.540031,0.015068,2.611000
Kings Heath,52.430383,-1.892215,0.696000
Kingsdown,51.461430,-2.594958,0.610000
Dinas Powys,51.433561,-3.212996,0.918000
Sparkhill,52.453374,-1.866605,1.396000
Clapham Junction,51.464198,-0.164329,1.608000
Kimberley,52.999095,-1.258301,1.354000
Notting Hill,51.513789,-0.201703,1.313000
Meanwood,53.828167,-1.563489,1.039000
Sherwood,52.979924,-1.151950,1.241000
Rumney,51.510749,-3.121806,1.504000
Finnieston,55.863333,-4.281637,0.748000
Stechford,52.482895,-1.799715,1.988000
Reading,51.447684,-1.008061,21.821000
Clifton,52.904070,-1.180650,1.496000
Wembley,51.557056,-0.290336,2.858000
Antrim Road,54.618822,-5.937129,1.015000
Pollok,55.826168,-4.349597,1.296000
Strathbungo,55.836467,-4.270341,0.514000
Clapham Common,51.459710,-0.137879,1.336000
Clovenstone,55.911513,-3.273614,0.313000
Merchant City,55.858765,-4.245398,0.644000
Moortown,53.843505,-1.535301,1.866000
Collyhurst,53.495580,-2.219287,0.709000
Hengrove,51.421185,-2.571234,0.655000
Bedminster,51.438806,-2.600858,1.574000
Paddington,51.517786,-0.178865,1.461000
Hendon,51.585925,-0.228651,1.659000
Dundonald,54.590292,-5.808610,3.049000
Dowanhill,55.875979,-4.297259,0.567000
Fairfield,53.412669,-2.941181,0.883000
Camberwell,51.473761,-0.087411,1.309000
Middlesbrough,54.547092,-1.205845,15.892000
Northolt,51.542626,-0.374692,1.736000
Rusholme,53.453214,-2.229944,1.150000
West Ealing,51.510441,-0.323707,0.924000
Blackley,53.521411,-2.212191,2.459000
Slateford Road,55.932822,-3.233672,0.654000
Baberton,55.909821,-3.287487,0.584000
Eastham,51.532268,0.052392,1.139000
Colindale,51.591346,-0.251521,1.110000
Ealing Broadway,51.513213,-0.310146,1.433000
Olton,52.439722,-1.809835,1.081000
Ashley Down,51.480238,-2.581485,0.298000
Oxton,53.384242,-3.044886,1.064000
Moseley,52.446763,-1.879335,2.142000
Swindon,51.570503,-1.788746,13.499000
Hall Green,52.432124,-1.843701,1.791000
Weybridge,51.369713,-0.449844,1.745000
Lambeth,51.467536,-0.116841,2.216000
Chelmsley Wood,52.478263,-1.741474,1.645000
Roseburn,55.943679,-3.232797,0.391000
Penylan,51.496948,-3.157294,0.634000
Muswell Hill,51.593620,-0.142461,1.265000
St Pauls,51.463099,-2.584182,0.613000
Newtown,52.494359,-1.900854,0.475000
Shettleston,55.851649,-4.172569,1.252000
Bloomfield,54.592547,-5.885868,0.266000
Derby,52.899221,-1.463688,18.104000
Beckenham,51.405379,-0.033203,1.765000
Marston Green,52.469247,-1.742436,0.952000
Selly Park,52.439366,-1.916493,0.724000
Llandaff North,51.503599,-3.223709,0.768000
Anniesland,55.892320,-4.323811,0.817000
Bradford,53.789839,-1.769007,10.513000
Grange,55.932052,-3.183223,0.942000
Adel,53.852440,-1.593246,1.352000
Castlefield,53.472269,-2.260581,0.402000
Drylaw,55.965024,-3.247737,0.790000
Llanedeyrn,51.513876,-3.153123,0.583000
Frenchay,51.489907,-2.533367,1.719000
Shirehampton,51.488841,-2.677874,0.727000
Sneinton,52.951189,-1.125931,0.638000
Chelsea,51.486668,-0.176996,1.844000
Meadows,52.939752,-1.148699,0.720000
Bow,51.525045,-0.030092,1.631000
Willesden Green,51.549325,-0.223578,1.551000
Quinton,52.458160,-1.991677,1.555000
Woodhouse,53.815240,-1.553742,0.275000
Finchley,51.604505,-0.184216,1.739000
Holywood,54.637188,-5.832667,2.144000
Cheadle,53.383455,-2.211211,2.544000
Pinner,51.592127,-0.386559,1.541000
Hunslet,53.774495,-1.532053,1.106000
Cambuslang,55.814144,-4.168165,3.315000
Clifton Village,51.453661,-2.620300,0.327000
Thorneywood,52.963469,-1.123370,0.709000
Liverpool Street,51.520567,-0.072809,1.181000
Lewisham,51.455087,-0.014363,2.641000
Summerston,55.902938,-4.289702,0.624000
Bartley Green,52.437463,-1.997945,1.542000
Craigmillar,55.931359,-3.140413,0.625000
Birkenhead,53.384507,-3.029115,3.240000
Bexleyheath,51.463618,0.143482,1.989000
Crosshill,55.835319,-4.259801,0.745000
Penny Lane,53.388715,-2.916785,0.432000
Fairmilehead,55.904582,-3.211206,1.447000
Redland,51.468788,-2.605446,0.991000
Bayswater,51.515187,-0.182347,1.197000
Wimbledon,51.419220,-0.205486,2.593000
Ward End,52.491533,-1.831599,1.123000
Waterloo,51.497759,-0.103420,1.109000
Middleton,53.746876,-1.540813,1.488000
Meadows,55.940407,-3.191100,1.269000
Beswick,53.477309,-2.197444,0.710000
Hanwell,51.510773,-0.334364,1.122000
Kingswood,51.463088,-2.510517,2.360000
Burnage,53.432007,-2.202892,1.665000
Kitts Green,52.482039,-1.782069,1.657000
Radyr,51.519243,-3.258461,1.038000
Chapeltown,53.815687,-1.528926,0.661000
Whitehall,51.461989,-2.553537,0.766000
North Kelvinside,55.880499,-4.279663,0.700000
Prestwich,53.527004,-2.275450,1.953000
Sciennes,55.938182,-3.182864,0.241000
Ashton,51.438251,-2.613743,0.522000
Maryhill,55.884951,-4.282382,2.706000
Rednal,52.393430,-2.006681,1.539000
Cookridge,53.851547,-1.614002,1.100000
The Park,52.950718,-1.160451,0.671000
Brighton,50.834233,-0.136921,8.174000
St Werburghs,51.469300,-2.575000,0.336000
Temple Meads,51.447913,-2.581144,2.087000
Thornwood,55.872138,-4.317663,0.240000
Bonnington,55.971268,-3.185340,0.509000
Droylsden,53.482578,-2.152203,1.935000
Filton,51.502633,-2.571910,1.067000
Blackheath,51.467469,0.016745,1.858000
New Gorbals,55.847141,-4.246697,0.771000
Allerton,53.388113,-2.915405,0.846000
Liverpool City Centre,53.404991,-2.980820,1.587000
Pollokshields,55.841459,-4.274277,0.564000
Norbury,51.407063,-0.120864,1.230000
Pilrig,55.964614,-3.180411,0.496000
Rubery,52.397423,-2.011512,1.720000
Fairwater,51.491018,-3.242022,1.240000
Gilmerton,55.910927,-3.145269,1.785000
Central London,51.513189,-0.129726,5.509000
Thornliebank,55.807600,-4.320204,1.341000
Turnpike Lane,51.588996,-0.098820,1.185000
Newington,55.940606,-3.180388,0.613000
St Anns,52.963780,-1.134093,1.138000
Seven Sisters,51.586237,-0.074946,1.080000
Wood Green,51.597057,-0.103158,1.536000
Kingston,51.402627,-0.290778,3.055000
Moss Side,53.454854,-2.242916,0.972000
Leyton,51.567632,-0.006120,1.785000
Rodley,53.819564,-1.654537,1.295000
Woolwich,51.486857,0.072921,2.168000
Grassmarket,55.946438,-3.198803,0.430000
Wallington,51.360689,-0.145572,1.261000
St Fagans,51.476629,-3.267124,0.520000
Greenbank,51.466386,-2.558938,0.310000
Cameron Toll,55.925368,-3.158640,0.887000
Llandaff,51.492864,-3.224419,1.746000
Upper Knowle,51.434971,-2.565996,0.399000
Headingley,53.817195,-1.577738,1.477000
Broomhill,55.875853,-4.319790,0.425000
Hodge Hill,52.499197,-1.809822,1.398000
University Area,54.585102,-5.928746,0.668000
Ferry Road,55.971239,-3.217330,3.378000
Great Barr,52.542090,-1.907624,3.721000
Blantyre,55.789156,-4.095529,1.669000
Danderhall,55.913345,-3.109650,0.537000
Sheldon,52.462610,-1.783702,1.788000
Yoker,55.887426,-4.377335,0.873000
Baguley,53.396682,-2.287944,1.398000
Streatham,51.426399,-0.128108,1.597000
Henbury,51.507841,-2.622678,1.376000
Erdington,52.525209,-1.848035,2.490000
Small Heath,52.471060,-1.850917,1.691000
Milton,55.897810,-4.247152,0.701000
Parkhead,55.850099,-4.194899,0.702000
Bournville,52.424064,-1.938215,2.200000
Murrayfield,55.944069,-3.239807,1.815000
Dunkirk,52.938930,-1.182559,0.262000
Salford,53.489704,-2.269090,4.919000
Norwich,52.660615,1.274581,33.930000
Mitcham,51.407882,-0.158249,1.973000
Willowbrae,55.950806,-3.142548,0.842000
Kenton,51.585046,-0.304361,1.332000
Hammersmith,51.492476,-0.224267,2.266000
Longstone,55.923856,-3.261863,0.837000
Crewe Toll,55.970460,-3.238434,0.600000
Oakwood,53.822396,-1.500054,1.304000
Tower Bridge,51.497354,-0.074862,1.383000
Harbourside,51.451399,-2.597111,1.214000
Neasden,51.554498,-0.246895,1.269000
Wanstead,51.575319,0.024258,1.421000
Catford,51.439304,-0.016160,1.510000
Malone,54.576422,-5.944899,1.368000
Whitechapel,51.517508,-0.055920,1.384000
South West London,51.432422,-0.224018,17.826000
Castle Vale,52.518704,-1.788459,0.698000
Giffnock,55.805428,-4.295229,1.638000
Seacroft,53.821292,-1.465519,1.175000
Granton,55.976366,-3.230633,1.660000
Gedling,52.975898,-1.083953,1.467000
Earlsfield,51.443841,-0.188122,1.144000
Cambridge,52.206828,0.125367,20.877000
Stapleton,51.481964,-2.549514,1.172000
Clydebank,55.909359,-4.397571,3.928000
Northern Moor,53.410545,-2.285037,1.190000
Epsom,51.340719,-0.260969,2.358000
Armley,53.796209,-1.593154,1.591000
Ravenhill,54.587548,-5.906031,0.490000
Shard End,52.496465,-1.777117,1.692000
Wollaton,52.955170,-1.202571,3.132000
Broadmead,51.457037,-2.589058,0.627000
Sefton Park,53.383423,-2.945734,1.097000
Hockley,52.492217,-1.913648,1.846000
Ladbroke Grove,51.519508,-0.211070,0.890000
Dingle,53.380927,-2.964447,0.516000
Hartcliffe,51.406793,-2.600265,1.053000
Newcastle,54.995807,-1.654414,59.923000
Bellevue,55.962085,-3.188928,0.469000
Woodford Green,51.606601,0.031493,1.722000
Trowbridge,51.516609,-3.106815,0.545000
Lawrence Weston,51.498894,-2.661273,1.649000
Robroyston,55.894646,-4.189417,0.886000
Watford,51.659082,-0.400506,2.648000
Sutton,51.365229,-0.190192,2.466000
Marylebone,51.518558,-0.152772,1.457000
Colwick,52.957316,-1.086867,0.589000
Stockbridge,55.958056,-3.210123,1.115000
Poole,50.728427,-1.955963,5.524000
Gildersome,53.758593,-1.631289,0.655000
Portsmouth,50.820428,-1.076580,4.231000
Edinburgh City Centre,55.951811,-3.194043,2.543000
Purley,51.334686,-0.114192,1.275000
Inverleith,55.969081,-3.206948,0.539000
Lisvane,51.538934,-3.177827,0.625000
Bordesley Green,52.478153,-1.844356,1.886000
Gamston,52.925911,-1.103403,0.442000
Broughton,55.961330,-3.189910,0.625000
Garnethill,55.867297,-4.263449,0.327000
Hyde Park,51.511008,-0.148989,0.825000
Butetown,51.468544,-3.167780,0.547000
Streatham Common,51.418804,-0.130549,0.976000
Charlton,51.483661,0.036578,1.504000
Montpelier,51.465957,-2.584740,0.471000
Oxgangs,55.907328,-3.224079,0.545000
Trafford,53.449557,-2.304475,6.118000
Bramley,53.809078,-1.630232,1.995000
Saltley,52.489316,-1.852293,0.750000
Birmingham City Centre,52.477684,-1.903863,1.520000
Lenton,52.951586,-1.172841,0.883000
West End,55.948563,-3.212717,0.962000
Putney,51.457616,-0.218133,2.273000
Stepps,55.889242,-4.146940,1.521000
Toxteth,53.391089,-2.960122,1.528000
Kelvindale,55.889238,-4.306125,0.911000
Stanmore,51.608578,-0.307538,1.409000
Liberton,55.910311,-3.157394,1.576000
Reddish,53.442128,-2.158364,1.863000
Leytonstone,51.565213,0.002801,1.436000
Aspley,52.976954,-1.202843,1.109000
Borehamwood,51.657526,-0.273682,1.329000
Stockwood,51.414319,-2.546358,0.882000
Stockwell,51.471337,-0.118575,0.951000
Witton,52.511511,-1.878615,0.332000
Stenhouse,55.931662,-3.263244,0.722000
Edge Hill,53.404423,-2.953308,0.797000
Kelvingrove,55.865675,-4.286613,0.482000
Langside,55.824457,-4.268353,0.935000
East London,51.556077,0.019969,11.684000
Bobbersmill,52.964756,-1.178311,0.433000
Redbridge,51.573128,0.072786,2.623000
Horsforth,53.838116,-1.631349,1.713000
Colinton Mains,55.909193,-3.231604,0.371000
Angel,51.536315,-0.100152,1.398000
Aldgate,51.515303,-0.062065,0.939000
Donegall Road,54.587962,-5.950851,0.634000
Comiston,55.917010,-3.212158,0.799000
Shawlands,55.828726,-4.282233,0.854000
Corstorphine,55.942180,-3.286650,2.118000
Hornchurch,51.559271,0.211661,1.676000
South Norwood,51.397788,-0.075711,0.925000
Fulham,51.480299,-0.200180,1.674000
Staple Hill,51.479067,-2.507551,0.902000
York,53.991691,-1.049863,35.817000
West Bromwich,52.524756,-1.999345,2.705000
Crossgates,53.806946,-1.449810,1.398000
Victoria Park,51.483655,-3.220848,0.697000
New Cross,51.471999,-0.039914,1.258000
Holyrood,55.950968,-3.174529,0.748000
New Moston,53.518925,-2.172145,1.097000
Earls Court,51.488983,-0.192817,1.201000
Southwark,51.489686,-0.082035,2.019000
Mynachdy,51.501793,-3.200747,0.490000
Henleaze,51.486145,-2.605644,1.032000
Tyseley,52.451204,-1.840418,1.094000
Newton Mearns,55.774693,-4.328340,2.262000
Isle of Dogs,51.500247,-0.017916,1.183000
Isleworth,51.472202,-0.338444,1.281000
Llanrumney,51.521670,-3.121893,0.828000
Hyde Park,53.810524,-1.570160,0.727000
Ladybarn,53.437040,-2.211138,0.395000
Erskine,55.900003,-4.451813,2.020000
Tile Cross,52.479183,-1.763183,0.754000
Clayton,53.484839,-2.178093,0.814000
East Ham,51.533821,0.049311,1.491000
Mapperley,52.974380,-1.129139,2.137000
Uxbridge,51.534049,-0.461310,2.882000
Stoke Gifford,51.517275,-2.542309,0.929000
Shandon,55.933970,-3.230942,0.389000
Barnet,51.627981,-0.181167,3.325000
Bulwell,52.999776,-1.194424,1.710000
Withywood,51.407428,-2.618157,0.947000
Forest Hill,51.439728,-0.049355,1.048000
Gorton,53.461560,-2.172813,1.653000
Bearsden,55.915592,-4.333013,2.423000
Barking,51.540929,0.093398,2.683000
East End Park,53.793916,-1.512667,0.815000
Blackford,55.926940,-3.181219,0.682000
Five Ways,52.472656,-1.916512,0.631000
Clermiston,55.955225,-3.288665,0.669000
Linthouse,55.863088,-4.330865,0.225000
Scotstoun,55.879288,-4.351792,1.143000
Bicester,51.908764,-1.168388,8.704889
Spalding,52.795613,-0.069919,12.543293
Pontypridd,51.589052,-3.333819,5.481732
Barnstaple,51.079481,-4.043745,11.833299
Hull,53.759952,-0.321137,33.072000
Bootle,53.454778,-2.989993,1.842000
Bromford,52.504385,-1.808050,1.099000
Docklands,51.508744,-0.015813,4.051000
Cotham,51.464496,-2.595185,1.036000
Heathrow,51.478320,-0.417619,5.366000
Chesser,55.929507,-3.248063,0.612000
Farsley,53.809972,-1.670328,0.892000
Lothian Road,55.946172,-3.204314,0.167000
Tooting Bec,51.429519,-0.157196,1.245000
Chadwell Heath,51.571262,0.130492,0.991000
Aston,52.503056,-1.891335,1.349000
Kingshurst,52.492652,-1.752338,0.541000
Whitchurch,51.412251,-2.568683,1.289000
Ormeau Road,54.579163,-5.921044,0.798000
Craigleith,55.957865,-3.238156,1.022000
Mill Hill,51.612902,-0.245068,2.199000
Kentish Town,51.550466,-0.141061,0.824000
Manchester City Centre,53.480411,-2.239651,1.694000
Highbury,51.550631,-0.098256,1.069000
Handsworth Wood,52.515405,-1.926321,1.531000
Cradley Heath,52.472765,-2.069738,1.612000
Pentwyn,51.525411,-3.148869,0.740000
Lace Market,52.952240,-1.142895,0.256000
Colliers Wood,51.414128,-0.175776,1.046000
Whitchurch,51.511329,-3.217099,1.753000
Buckstone,55.906854,-3.201124,0.604000
Stirchley,52.428641,-1.918157,0.928000
West London,51.506936,-0.339653,10.737000
Victoria,51.493987,-0.138520,0.955000
Edgbaston,52.473465,-1.932256,3.811000
Romford,51.579975,0.179224,4.014000
Leeds City Centre,53.797899,-1.548119,1.904000
Harborne,52.455230,-1.958250,2.175000
Battlefield,55.824292,-4.265381,0.594000
Heaton Mersey,53.413741,-2.200173,0.885000
Stoke Bishop,51.481388,-2.635539,1.066000
Pleasance,55.945568,-3.180729,0.354000
Willesden,51.544867,-0.232650,1.647000
Hackney,51.546656,-0.065439,1.938000
Pontprennau,51.532776,-3.141932,0.943000
Lochend,55.961996,-3.155746,0.649000
Barton Hill,51.454884,-2.562353,0.447000
Mount Florida,55.826225,-4.257715,0.358000
Edgeley,53.402074,-2.170697,0.570000
Penilee,55.850735,-4.369435,0.711000
Camden,51.534763,-0.131537,3.309000
Sighthill,55.921404,-3.283638,1.220000
Weoley Castle,52.436183,-1.970124,0.949000
Longsight,53.453705,-2.200690,1.257000
Vauxhall,51.479292,-0.122628,1.304000
Kilburn,51.542400,-0.203971,1.871000
Bedminster Down,51.426340,-2.612768,0.486000
Openshaw,53.472832,-2.170559,1.585000
Plymouth,50.385415,-4.118450,12.854000
Knowle Park,51.429010,-2.571476,0.417000
West Pilton,55.971186,-3.245746,0.511000
Dollis Hill,51.554190,-0.233981,1.091000
New Basford,52.974335,-1.166797,0.541000
Whinmoor,53.828183,-1.453323,1.320000
Partick,55.871566,-4.308305,1.120000
Washwood Heath,52.492135,-1.840311,1.616000
Moston,53.510973,-2.199512,0.966000
Hampstead,51.551727,-0.177301,1.776000
Culverhouse Cross,51.471610,-3.263377,0.887000
Polwarth,55.937850,-3.219492,0.435000
Gorbals,55.847892,-4.248917,0.859000
Riverside,51.478347,-3.191443,0.615000
Sutton Coldfield,52.551843,-1.836142,5.815000
Merchiston,55.936237,-3.215344,0.755000
Gabalfa,51.501509,-3.200933,1.774000
East Dulwich,51.457296,-0.070290,1.223000
Kennington,51.484984,-0.105491,1.009000
Raynes Park,51.406921,-0.227254,1.438000
Canning Circus,52.956041,-1.162665,0.180000
Eltham,51.450011,0.051414,1.647000
Bishopsworth,51.413323,-2.619003,1.091000
Acocks Green,52.446122,-1.823935,1.279000
Aigburth,53.377943,-2.945735,1.431000
Blackhall,55.958558,-3.255037,1.448000
Birmingham,52.477684,-1.903863,7.660000
Liverpool,53.404991,-2.930820,12.153000
Clarence Dock,53.789667,-1.529543,0.014000
Gants Hill,51.577031,0.069996,1.174000
Mapperley Park,52.968416,-1.146630,0.638000
Sydenham,54.604297,-5.880885,0.652000
Royston,55.868874,-4.225449,0.610000
Wilmslow,53.333408,-2.228528,2.114586
Springburn,55.884045,-4.229829,1.416000
Old Trafford,53.458672,-2.267180,1.500000
Southampton,50.908778,-1.381874,20.026000
Rothwell,53.751279,-1.480564,2.128000
Golders Green,51.575545,-0.200717,1.121000
Leatherhead,51.289450,-0.368270,5.019976
Brighouse,53.702483,-1.784124,1.771623
Coalville,52.722342,-1.367579,5.532929
Redhill,51.237493,-0.157994,4.286404
Airdrie,55.867689,-3.961648,5.103568
Glossop,53.448563,-1.965059,6.439388
Chorley,53.656181,-2.636161,5.228855
Deal,51.216597,1.385769,4.778508
Whitstable,51.353584,1.034978,3.369260
Skelmersdale,53.547452,-2.769513,2.525198
Bromsgrove,52.335009,-2.059812,4.997230
Wisbech,52.657644,0.165234,11.260828
Haywards Heath,51.010136,-0.106247,6.744529
Beverley,53.847130,-0.427847,7.058829
Hitchin,51.946844,-0.271839,7.689802
Redcar,54.601960,-1.058852,4.212932
Lichfield,52.680555,-1.819016,5.599381
Bedworth,52.479002,-1.472289,3.537367
Morecambe,54.060241,-2.865991,4.566249
Motherwell,55.798399,-3.975671,4.149320
Bridlington,54.095153,-0.191447,5.467302
Chester Le Street,54.866139,-1.582962,3.628515
Wickford,51.610922,0.528819,3.711189
Windsor,51.475449,-0.627039,4.173938
Brierley Hill,52.480462,-2.123810,2.192685
Billingham,54.612090,-1.293103,4.615913
Warwick,52.254326,-1.587786,12.721482
Billericay,51.626174,0.428923,3.531610
Whitley Bay,55.051763,-1.474504,3.904975
Hyde,53.451952,-2.056589,3.133209
Loughton,51.648384,0.066954,2.140193
Chippenham,51.473762,-2.131442,12.076667
Exmouth,50.629745,-3.401954,2.793464
Irvine,55.618533,-4.648245,3.492253
Farnham,51.207791,-0.796031,5.526051
Pontypool,51.719464,-3.047328,5.750236
Carrickfergus,54.728782,-5.801082,4.894347
Fleetwood,53.915955,-3.027686,1.609545
Shipley,53.838824,-1.773408,3.092911
Kendal,54.325003,-2.749648,8.783003
Colwyn Bay,53.288718,-3.730824,6.579752
Witney,51.790427,-1.457922,6.086380
Burntwood,52.680091,-1.919607,4.918217
Congleton,53.165272,-2.212429,4.641149
Bishop Auckland,54.681303,-1.812103,20.425754
Frome,51.232930,-2.325450,6.368716
Melton Mowbray,52.775682,-0.892573,8.903498
East Grinstead,51.125439,-0.014156,5.016672
Haverhill,52.083222,0.439848,4.599654
Ferndown,50.805779,-1.888679,2.358262
St Neots,52.235797,-0.263915,6.873756
Didcot,51.599125,-1.249892,3.968727
Heanor,53.012548,-1.353728,2.978076
Witham,51.805738,0.637154,4.453660
Ballymena,54.903935,-6.277401,18.588684
Pontefract,53.648310,-1.319990,5.066157
Ashington,55.177998,-1.563353,2.377626
Newton Aycliffe,54.617440,-1.578055,2.464744
Sevenoaks,51.291620,0.215024,6.780891
Rhyl,53.310446,-3.476452,5.958007
Peterlee,54.766399,-1.336390,2.505769
Wishaw,55.776818,-3.913362,3.924198
Stanford-le-Hope,51.521947,0.438194,3.265837
Chichester,50.822949,-0.789605,10.084130
Egham,51.427489,-0.552244,2.237560
Hertford,51.798379,-0.083244,6.169188
Cramlington,55.080046,-1.582709,2.968229
Newry,54.156705,-6.297892,16.782548
Nelson,53.837385,-2.215666,4.320009
Stratford-upon-Avon,52.185403,-1.713771,7.260209
Aberdare,51.718320,-3.458897,8.652261
Heywood,53.590593,-2.222954,1.840542
Newtownards,54.545666,-5.657630,15.693360
Stalybridge,53.486956,-2.047082,1.953929
Harpenden,51.816444,-0.352926,5.235498
Newton Abbot,50.553504,-3.651909,14.205449
Dunstable,51.893402,-0.525551,5.406887
Rushden,52.292662,-0.597694,2.705533
Bushey,51.644990,-0.357741,1.888390
Thatcham,51.411673,-1.257825,5.845210
Darwen,53.698092,-2.466639,2.641391
Bolton,53.579597,-2.447588,7.721324
Northampton,52.255058,-0.901486,14.430057
Southend-on-Sea,51.544109,0.741977,9.007747
Wolverhampton,52.593411,-2.145543,9.616003
Warrington,53.406621,-2.582215,8.278069
Winsford,53.190127,-2.528364,4.880443
Broadstairs,51.363230,1.429312,1.731928
Chesham,51.712905,-0.609190,3.658653
Amersham,51.672427,-0.603888,3.337701
Arbroath,56.573253,-2.599117,7.654034
Coleraine,55.085461,-6.673307,13.987132
Caterham,51.285058,-0.082553,3.128615
Evesham,52.095338,-1.929735,6.510094
Retford,53.323914,-0.928723,6.919097
Elgin,57.653327,-3.326497,7.164708
Droitwich,52.268044,-2.158600,5.432539
Ormskirk,53.578720,-2.874074,6.946354
Omagh,54.593660,-7.300011,19.534579
Bingley,53.848953,-1.833989,2.972232
Alfreton,53.101703,-1.372817,4.935242
Reigate,51.235246,-0.203031,4.503578
Rickmansworth,51.646602,-0.482234,3.881980
Holmfirth,53.579996,-1.796388,4.114919
Felixstowe,51.967244,1.341129,3.048078
Buxton,53.244046,-1.880620,9.747291
March,52.537380,0.085463,6.780855
Seaham,54.830532,-1.362890,2.323015
Skegness,53.158340,0.304228,7.605936
Consett,54.857021,-1.850592,11.015614
Burnham-on-Sea,51.245031,-2.994971,5.370616
St Austell,50.342984,-4.805158,7.797563
Sudbury,52.058484,0.720805,9.720821
Whitehaven,54.543789,-3.578374,3.243439
Antrim,54.732406,-6.258771,19.748339
Thetford,52.492996,0.747337,13.379625
Newton-le-Willows,53.453844,-2.633021,1.891262
Horley,51.173032,-0.162723,3.734516
Maldon,51.741149,0.700775,6.467173
Kenilworth,52.346447,-1.573957,5.028389
Normanton,53.700382,-1.415568,1.742836
Falmouth,50.149831,-5.087700,6.007531
Huntingdon,52.361780,-0.176708,14.041575
Seaford,50.776488,0.108305,2.921127
Belper,53.021802,-1.475739,5.416922
Potters Bar,51.699539,-0.177175,3.578084
Rugeley,52.758514,-1.917951,6.592657
Workington,54.634812,-3.538299,6.863562
Ryde,50.721684,-1.169811,3.858249
Ossett,53.680399,-1.576492,1.526393
Godalming,51.170719,-0.626652,6.571987
Dronfield,53.299485,-1.473990,3.349946
Daventry,52.242361,-1.179089,8.496146
Market Harborough,52.486399,-0.895093,8.183988
Blackwood,51.669164,-3.198067,4.958367
Melksham,51.372423,-2.137186,3.969565
Hebburn,54.971173,-1.513536,1.267354
Gerrards Cross,51.597210,-0.555988,2.559350
Berkhamsted,51.767772,-0.568933,5.096832
Bellshill,55.818392,-4.021416,1.395506
Newmarket,52.230104,0.426877,8.850044
Gainsborough,53.419918,-0.702973,9.917053
Stowmarket,52.206362,1.032833,9.302453
Sandhurst,51.349396,-0.792011,1.667680
Dumbarton,55.951719,-4.574212,4.973611
Stanley,54.868474,-1.711574,3.478878
Dukinfield,53.474186,-2.082662,1.528684
Stourport-on-Severn,52.336770,-2.281329,4.061495
Hailsham,50.871764,0.263519,5.425045
South Ockendon,51.508701,0.276637,2.237701
Maesteg,51.610444,-3.652118,2.998632
Harwich,51.931410,1.253399,6.055437
Leek,53.100841,-2.019411,7.449572
Goole,53.708397,-0.939710,10.724383
Waltham Abbey,51.695904,0.014548,3.950167
Ware,51.833878,-0.003302,7.117359
Emsworth,50.852014,-0.929810,2.763573
Tiverton,50.922480,-3.491800,10.239605
Wantage,51.595475,-1.425810,5.951565
Faversham,51.303437,0.894097,6.818812
Newquay,50.407872,-5.059895,6.536668
Colne,53.858012,-2.163336,3.427038
Buckley,53.169224,-3.077580,2.768944
Stamford,52.653967,-0.478087,8.547307
Oswestry,52.855574,-3.074702,20.575737
Truro,50.256081,-5.060912,9.625383
Tewkesbury,52.002367,-2.132592,6.220685
Alloa,56.117173,-3.787233,6.088375
Peacehaven,50.795879,0.001094,1.280914
Bathgate,55.881245,-3.664401,5.895629
Yarm,54.487687,-1.332628,5.839496
Redruth,50.232716,-5.229229,4.887008
Mirfield,53.679777,-1.695736,2.592374
Swanscombe,51.444557,0.302890,4.031967
Dereham,52.701575,0.957349,10.164590
Wednesbury,52.560522,-2.022265,2.014550
Dorchester,50.734446,-2.448146,13.707624
Ripley,53.045419,-1.402962,2.674004
New Milton,50.752783,-1.657997,3.662930
Crowborough,51.052436,0.175082,4.835140
Ely,52.387332,0.266840,10.867062
Camborne,50.210658,-5.296219,4.207533
Larne,54.845496,-5.824189,7.006815
Clevedon,51.435061,-2.849891,4.004101
Aberystwyth,52.395573,-4.036423,15.988525
Carmarthen,51.861771,-4.325664,14.341398
Ebbw Vale,51.785272,-3.197430,3.964382
Prestatyn,53.331176,-3.410479,3.177643
St Ives,50.202944,-5.479184,5.262985
Bordon,51.116742,-0.847419,3.237948
Cirencester,51.714020,-1.948010,11.090618
Royston,52.064428,-0.015185,7.454098
Carterton,51.764050,-1.592090,2.436931
Biggleswade,52.082199,-0.266503,4.918355
Tadley,51.341040,-1.132489,5.992428
Guisborough,54.532380,-1.061845,3.010597
Sandbach,53.143088,-2.366438,4.155893
Bangor,54.654257,-5.667001,3.819603
Devizes,51.336903,-1.987240,6.174639
Nantwich,53.062082,-2.522305,6.764517
Peterhead,57.500978,-1.892265,11.556610
Poulton-le-Fylde,53.868146,-2.982031,4.794388
St Ives,52.331590,-0.071194,2.828807
Spennymoor,54.699012,-1.606161,12.697322
Addlestone,51.363599,-0.495983,1.988166
Westbury,51.262017,-2.181995,5.317041
Grangemouth,56.010743,-3.720703,1.818929
Ryton,54.965909,-1.773252,2.599404
Warminster,51.171012,-2.188896,9.782913
Romsey,50.995488,-1.505073,5.175974
Rochford,51.593635,0.713013,4.194437
Alton,51.139474,-0.985365,7.830880
Bangor,53.207151,-4.111679,6.940798
Kilwinning,55.655663,-4.700381,4.558073
Bideford,51.015253,-4.245651,20.915252
Dorking,51.211193,-0.338790,7.485834
Selby,53.781389,-1.060140,9.815423
Knaresborough,54.013280,-1.458222,4.211310
Sleaford,52.987239,-0.393833,9.837870
Penicuik,55.833020,-3.224572,5.688768
Louth,53.372919,0.026282,10.105199
Penzance,50.116506,-5.552475,8.019132
Banbridge,54.335174,-6.245923,8.902549
Bedlington,55.135287,-1.586400,2.804728
Elland,53.685106,-1.835487,2.863088
Northallerton,54.353369,-1.440939,9.532889
Brixham,50.391801,-3.523614,2.925250
Calne,51.439870,-1.999812,4.586458
Swanley,51.398502,0.174870,2.019637
Porthcawl,51.484959,-3.699684,2.115314
Tonypandy,51.620385,-3.451584,2.122493
Johnstone,55.835774,-4.523152,4.910182
Ripon,54.157324,-1.567814,10.885476
Liversedge,53.708271,-1.700399,1.539425
Saltash,50.419343,-4.249694,5.909381
Lewes,50.895240,0.023964,8.301693
Llandudno,53.318176,-3.816158,2.749406
Ashtead,51.311191,-0.303330,1.208534
Saffron Walden,52.014988,0.238174,8.130551
Morpeth,55.235762,-1.714382,24.962862
Tredegar,51.771410,-3.258040,3.128254
Beaconsfield,51.610443,-0.640947,2.363911
Port Glasgow,55.927396,-4.664335,4.601439
Bourne,52.775462,-0.376908,6.466019
Hessle,53.725097,-0.436678,1.208549
Haverfordwest,51.828234,-5.035362,12.315037
Uckfield,50.982025,0.100090,5.621562
Cottingham,53.782020,-0.427456,5.375630
Crowthorne,51.372553,-0.799159,3.218542
Clitheroe,53.873027,-2.387613,9.346613
Bodmin,50.487154,-4.725753,8.377217
Knottingley,53.711678,-1.255802,3.397287
Hythe,51.072923,1.076683,4.146768
Carluke,55.731427,-3.843329,5.289097
Chertsey,51.382726,-0.515481,3.423200
Ilkley,53.919308,-1.801434,5.428557
Yateley,51.338412,-0.832031,1.344393
Strabane,54.826080,-7.430769,9.841007
Broxburn,55.936923,-3.487528,6.560761
Cowes,50.755100,-1.306923,3.382375
Ringwood,50.844171,-1.787410,5.681474
Galashiels,55.623428,-2.811972,9.476070
Petersfield,51.004018,-0.939845,7.154733
Teignmouth,50.550746,-3.507723,2.770919
Beccles,52.438822,1.583379,7.496526
Bonnyrigg,55.872638,-3.104861,1.667684
Lymington,50.755439,-1.566712,4.502308
Marlow,51.575210,-0.777952,3.439605
Larkhall,55.724590,-3.967523,4.654092
Prestwick,55.497358,-4.605408,2.841839
Borrowstounness,56.011165,-3.605525,2.432914
Dursley,51.689648,-2.357336,3.403553
Enniskillen,54.337625,-7.601125,24.446845
Newport Pagnell,52.089648,-0.722345,6.046125
Dungannon,54.513230,-6.776572,15.472519
Neston,53.288203,-3.047849,3.255564
Porth,51.600744,-3.425305,2.719846
Flint,53.242750,-3.134833,2.350477
Skipton,53.993655,-2.057663,18.845620
Mexborough,53.490821,-1.299471,1.936899
Bridport,50.739054,-2.775589,7.943457
Matlock,53.127232,-1.566598,6.547519
Kidlington,51.829685,-1.282003,6.829035
Penrith,54.643763,-2.736855,17.921958
Hastings,50.871018,0.593331,4.596155
Rayleigh,51.588461,0.607656,1.853816
Crawley,51.115310,-0.176302,5.162403
Rochdale,53.618877,-2.158142,4.883079
Maidstone,51.258926,0.536361,10.375341
Gillingham,51.370016,0.576841,3.107469
Blackburn,53.754260,-2.474902,5.274908
Chesterfield,53.231547,-1.399450,7.615705
Basildon,51.572769,0.464595,3.292938
Rotherham,53.450040,-1.327511,8.121817
Slough,51.517422,-0.596795,5.011066
Hemel Hempstead,51.752845,-0.468920,5.028776
Peterborough,52.580256,-0.268153,14.685816
Worcester,52.189532,-2.226609,12.756232
Halifax,53.723232,-1.872918,6.181568
Gillingham,51.037186,-2.290339,4.514331
High Wycombe,51.633324,-0.751391,8.549698
Colchester,51.882732,0.889436,11.477887
Wigan,53.539710,-2.642876,7.454189
Doncaster,53.524603,-1.081981,13.934751
Nuneaton,52.537549,-1.468759,10.027432
Telford,52.685660,-2.472930,9.580405
Lincoln,53.207939,-0.522569,20.422320
Hartlepool,54.685869,-1.231848,6.639493
Basingstoke,51.259673,-1.110450,7.853712
Southport,53.640289,-2.992817,5.825905
Darlington,54.530398,-1.564625,12.780656
Bedford,52.115595,-0.477265,13.195044
Wakefield,53.678796,-1.513346,7.650904
Woking,51.317536,-0.572606,5.805803
Preston,53.776320,-2.728285,14.145480
Sale,53.421066,-2.326094,1.856393
Stevenage,51.906222,-0.183101,4.985050
Solihull,52.403508,-1.788800,6.202507
Eastbourne,50.782882,0.280520,4.644357
Grimsby,53.548669,-0.097527,9.922830
Worthing,50.822308,-0.395952,5.395074
Gateshead,54.943346,-1.591620,3.718646
Cheltenham,51.900514,-2.041809,15.911734
Chelmsford,51.729359,0.508457,19.428973
St Helens,53.454777,-2.732617,5.564874
Blackpool,53.813891,-3.034109,4.246749
Stockport,53.398473,-2.134468,6.220919
Huddersfield,53.636147,-1.778940,8.272641
Barnsley,53.551752,-1.458266,6.614197
Oldham,53.547837,-2.098754,6.719938
Paignton,50.435437,-3.574120,3.325102
Chester,53.187772,-2.884395,9.599062
Burnley,53.795556,-2.255860,5.291634
Burton-on-Trent,52.804641,-1.655414,8.834916
Lowestoft,52.473456,1.725468,5.413450
Weston-super-Mare,51.346614,-2.946752,5.477643
Shrewsbury,52.716377,-2.769435,14.576048
Crewe,53.093907,-2.426055,11.495584
Widnes,53.372674,-2.742371,3.245186
Farnborough,51.293889,-0.763275,1.991119
Grays,51.486241,0.329744,3.930957
Tamworth,52.624218,-1.674736,6.684898
Dewsbury,53.687599,-1.632997,3.251102
Scarborough,54.273113,-0.429074,10.695744
Eastleigh,50.976275,-1.358643,3.565502
Walsall,52.606257,-1.973946,4.966714
Cannock,52.696164,-2.011413,3.357593
South Shields,54.980250,-1.425411,2.140628
Rochester,51.400009,0.508479,9.873701
Dudley,52.514779,-2.103241,6.038869
Gosport,50.804159,-1.151535,2.565897
Margate,51.383729,1.389299,2.418555
Ellesmere Port,53.277090,-2.920792,3.084239
Washington,54.902402,-1.526498,2.578342
Bury,53.607136,-2.307056,5.022625
Redditch,52.295408,-1.936674,6.502799
Londonderry,54.990059,-7.267314,31.293583
Chatham,51.362530,0.531045,3.299306
Craigavon,54.438316,-6.373619,10.855837
Ashford,51.430791,-0.457653,1.290312
Stockton-on-Tees,54.567276,-1.337269,9.777952
Runcorn,53.330320,-2.704111,3.139076
Ashford,51.141048,0.843914,11.254746
Stourbridge,52.452160,-2.154621,7.452634
Bognor Regis,50.791061,-0.677054,3.811322
Harlow,51.766661,0.106429,6.008639
Batley,53.718811,-1.642260,2.039233
Stafford,52.795208,-2.131097,11.884030
St Albans,51.756541,-0.333373,8.675896
Bracknell,51.416051,-0.753024,3.563524
Scunthorpe,53.586782,-0.667791,8.649596
Harrogate,54.008783,-1.566842,18.188454
Maidenhead,51.523696,-0.728377,4.725334
Carlisle,54.896850,-2.924182,16.870895
Rugby,52.368719,-1.271472,7.818213
Newtownabbey,54.676632,-5.938998,4.004958
Aylesbury,51.810132,-0.837267,11.796937
Mansfield,53.160115,-1.177435,6.686886
Taunton,51.030393,-3.135701,15.986695
Neath,51.680242,-3.779269,12.161421
Canterbury,51.268060,1.106342,9.820867
Loughborough,52.767875,-1.203464,7.748608
Willenhall,52.595427,-2.050261,3.208030
Sutton-in-Ashfield,53.128348,-1.267701,2.659776
Barrow-in-Furness,54.118234,-3.221448,4.915646
Hamilton,55.770732,-4.054917,4.530004
Leamington Spa,52.284525,-1.522403,6.257362
Clacton-on-Sea,51.804917,1.143562,6.631572
Durham,54.777052,-1.571865,11.060953
Sittingbourne,51.339700,0.729744,5.956314
Barry,51.407347,-3.291070,7.150608
Wellingborough,52.306141,-0.664528,8.524906
Macclesfield,53.262472,-2.137174,8.600805
Corby,52.490940,-0.699653,8.434990
Kettering,52.400791,-0.704972,11.374069
Kingswinford,52.498363,-2.164913,1.746998
Northwich,53.256383,-2.532920,6.311461
Dunfermline,56.063375,-3.455012,8.193983
Altrincham,53.385923,-2.342497,3.874153
Livingston,55.892611,-3.515052,3.554690
Horsham,51.056945,-0.330908,8.217629
Ayr,55.445955,-4.592065,14.969111
Esher,51.368278,-0.354681,2.144943
Torquay,50.474647,-3.534722,2.948144
Kings Lynn,52.762606,0.485842,17.861908
Gravesend,51.421666,0.367966,6.778806
Welwyn Garden City,51.799088,-0.195146,2.362179
Tunbridge Wells,51.136305,0.265449,7.237508
Banbury,52.056498,-1.348593,9.433100
Keighley,53.871522,-1.938576,7.122770
Littlehampton,50.814344,-0.514173,4.062574
Aldershot,51.250463,-0.744930,2.687665
Lancaster,54.054878,-2.746073,17.878323
Christchurch,50.746914,-1.754453,5.536690
Hereford,52.055480,-2.783563,20.153959
Perth,56.405667,-3.433480,12.619141
Brentwood,51.625450,0.312141,5.330459
Kidderminster,52.384702,-2.299839,12.275057
Shoreham-by-Sea,50.835986,-0.266886,3.190656
Folkestone,51.091270,1.161857,5.929639
Cwmbran,51.651068,-3.027961,2.885344
Weymouth,50.622460,-2.466203,8.580856
Yeovil,50.955103,-2.637727,9.965482
Llanelli,51.715664,-4.139783,9.290956
Newbury,51.399554,-1.328234,10.112771
Winchester,51.070158,-1.319260,9.838405
Camberley,51.326444,-0.742916,4.680210
Worksop,53.315934,-1.137347,7.231028
Lytham St Annes,53.750487,-3.002455,3.223674
Canvey Island,51.522238,0.589736,2.547820
Wokingham,51.406834,-0.848482,3.876163
Boston,52.988051,-0.021655,12.994390
Braintree,51.889845,0.541296,9.705631
Bishops Stortford,51.868610,0.179540,6.684656
Blyth,55.122242,-1.522510,2.616737
Jarrow,54.967658,-1.484314,1.748463
Hoddesdon,51.765348,-0.009156,2.076683
Leyland,53.692321,-2.708117,4.988169
Bury St Edmunds,52.263081,0.708483,16.557357
Herne Bay,51.364415,1.129159,3.417423
Prescot,53.423167,-2.795404,4.369328
Wallsend,55.000066,-1.520155,1.972452
Bexhill-on-Sea,50.845823,0.465458,2.704240
Dover,51.148065,1.291842,6.549568
Coatbridge,55.859710,-4.031676,3.578397
Ashton-under-Lyne,53.498186,-2.081655,3.159142
Fareham,50.854117,-1.195476,5.668836
Tipton,52.532817,-2.055259,1.369766
Ramsgate,51.338738,1.397451,5.855798
Ilkeston,52.973360,-1.323383,4.781639
Port Talbot,51.607192,-3.765762,8.051805
Fleet,51.277835,-0.840806,2.084569
Cleethorpes,53.554658,-0.036569,2.230447
Hinckley,52.537028,-1.369926,4.658947
Bridgwater,51.130725,-2.997806,11.113708
Andover,51.219994,-1.500766,7.626506
Hatfield,51.755015,-0.220366,3.794853
Castleford,53.724035,-1.346484,2.870132
Kilmarnock,55.619470,-4.503011,8.780872
Greenock,55.942568,-4.777554,4.923825
Leighton Buzzard,51.907464,-0.663740,5.829675
Grantham,52.904388,-0.631643,12.807441
Swadlincote,52.755751,-1.555940,6.548872
Glenrothes,56.197571,-3.173367,4.788015
Salisbury,51.086704,-1.821872,16.971503
Havant,50.861425,-0.985920,1.984433
Abingdon,51.670469,-1.295466,6.678481
Great Yarmouth,52.619939,1.697199,11.468328
Tonbridge,51.189972,0.346136,10.598345
Chorlton,53.442460,-2.273853,1.391000
Dalry,55.942382,-3.221709,0.652000
Holborn,51.520278,-0.116144,0.953000
Carrington,52.973910,-1.152879,0.145000
Norris Green,53.445059,-2.920173,1.486000
Princes Park,53.388305,-2.955720,0.519000
Guildford,51.238916,-0.569581,9.616000
Cheetham Hill,53.504861,-2.240720,1.113000
Hillside,55.958653,-3.176739,0.414000
Lakeside,51.513525,-3.169138,0.348000
Dulwich,51.453310,-0.077699,1.722000
Prestonfield,55.932696,-3.160993,0.477000
Tower Hamlets,51.517390,-0.043297,2.326000
West Derby,53.433847,-2.899618,2.859000
Penarth,51.437170,-3.180184,1.339000
Harrow,51.582748,-0.337755,3.500000
Alum Rock,52.488018,-1.844546,1.368000
West Hampstead,51.546263,-0.193261,1.268000
Cregagh,54.582696,-5.899746,1.040000
Elephant and Castle,51.490073,-0.087031,1.377000
Muirhouse,55.970752,-3.259397,0.550000
Southside,55.833112,-4.278071,7.066000
Drumchapel,55.911468,-4.366516,1.553000
Adamsdown,51.484404,-3.157939,0.679000
Redcliffe,51.447051,-2.589526,0.343000
Clapham,51.458575,-0.143666,2.416000
Hulme,53.464440,-2.252809,0.985000
Bearwood,52.477516,-1.971836,0.853000
Roundhay,53.830178,-1.513899,2.152000
Haymarket,55.944705,-3.217705,0.659000
Ipswich,52.060117,1.133569,20.225000
Cheetwood,53.499483,-2.249539,0.317000
Baillieston,55.850597,-4.116581,1.322000
Plumstead,51.483375,0.084515,1.435000
Inch,55.919277,-3.156865,0.718000
Winson Green,52.491812,-1.936180,0.943000
Newcraighall,55.933615,-3.112911,2.005000
Tremorfa,51.487817,-3.139900,0.519000
Nuthall,52.990890,-1.229058,1.870000
Rutherglen,55.819984,-4.209203,2.464000
Beeston,53.774051,-1.554841,1.358000
Ely,51.476411,-3.249684,1.652000
Walton on Thames,51.380116,-0.408197,1.219000
East Craigs,55.951824,-3.305633,0.441000
Drumoyne,55.856729,-4.331454,0.905000
Handsworth,52.506074,-1.924362,2.454000
St George,51.459532,-2.544171,1.671000
Withington,53.433918,-2.227396,1.465000
Old Street,51.528828,-0.083225,1.117000
Bishopston,51.475506,-2.589793,1.049000
Inverness,57.465688,-4.223149,67.215000
Whitefield,53.545893,-2.287613,1.768000
Erith,51.478040,0.168486,1.948000
Alwoodley,53.854111,-1.534469,2.599000
Northfield,52.411087,-1.970698,2.854000
Lisburn,54.531702,-6.039102,5.327000
Roath Park,51.498152,-3.168129,1.066000
Orpington,51.379795,0.099945,1.853000
Garston,53.356691,-2.901254,1.049000
Westbury On Trym,51.493854,-2.610218,2.283000
Lark Lane,53.380062,-2.947196,0.429000
Croydon,51.375550,-0.094766,4.065000
Carshalton,51.371741,-0.168968,1.306000
Ocean Terminal,55.977173,-3.179885,0.267000
Clifton,51.459272,-2.611544,1.104000
Halesowen,52.460626,-2.051376,4.287000
Gracemount,55.905482,-3.159099,0.384000
Sneyd Park,51.473060,-2.634159,0.565000
West Park,53.834004,-1.599715,1.024000
Richmond,51.457163,-0.307661,3.485000
Smethwick,52.488145,-1.968206,1.929000
Springboig,55.857328,-4.157874,0.410000
Fountainbridge,55.939664,-3.216770,1.113000
Cinderhill,52.985494,-1.202046,0.682000
Colinton,55.906954,-3.241896,2.954000
Albany Road,51.492873,-3.164895,0.816000
Lenzie,55.923947,-4.155425,1.886000
Belle Isle,53.761846,-1.528050,1.085000
Exeter,50.720918,-3.512759,23.272000
Canning Town,51.515863,0.023108,1.854000
Digbeth,52.471937,-1.885810,0.758000
Milngavie,55.942187,-4.322562,1.898000
Musselburgh,55.940597,-3.047867,3.231000
Victoria Park,51.535356,-0.041352,1.058000
Yorkhill,55.866042,-4.292215,0.331000
Headley Park,51.418467,-2.609612,0.500000
Halton,53.796969,-1.469536,1.181000
Hyson Green,52.964819,-1.172223,0.580000
Fishponds,51.476898,-2.527135,2.390000
Ancoats,53.483056,-2.223893,0.896000
Hoxton,51.530316,-0.080282,0.845000
Lisburn Road,54.581233,-5.950012,0.678000
Shepherds Bush,51.503199,-0.230584,1.899000
Manor House,51.575899,-0.092154,1.080000
Castle Bromwich,52.502024,-1.776891,3.271000
Tottenham,51.592996,-0.074120,1.395000
Smithdown Road,53.393100,-2.932780,1.122000
Newlands,55.818636,-4.281157,1.409000
Eastville,51.471452,-2.559629,1.075000
East Finchley,51.590946,-0.168899,1.074000
Newham,51.528769,0.036574,2.021000
Knightswood,55.893844,-4.352925,2.264000
Pengam Green,51.490459,-3.134629,0.394000
Canonmills,55.962170,-3.196948,0.524000
West End,55.873823,-4.288037,2.938000
Kirkdale,53.433567,-2.979916,0.995000
Leith Links,55.969390,-3.162211,0.654000
Joppa,55.947682,-3.094830,1.716000
Paisley Road West,55.851722,-4.292958,1.051000
Victoria Park,51.437316,-2.586489,0.407000
St Mellons,51.522651,-3.099374,0.903000
Stoke-on-Trent,53.027350,-2.157313,22.172000
Whiteinch,55.873962,-4.336976,0.814000
Craiglockhart,55.923169,-3.238815,1.038000
New Malden,51.399538,-0.258320,1.394000
Wembley Park,51.564403,-0.278325,1.287000
Bethnal Green,51.526705,-0.054540,1.644000
Rise Park,53.010569,-1.173299,0.705000
Lawrence Hill,51.456622,-2.565396,0.505000
Maypole,52.406517,-1.888241,1.306000
Hornsey,51.577724,-0.118269,1.184000
Llandough,51.448071,-3.195433,0.402000
Keynsham,51.410723,-2.499742,1.230000
Coventry,52.410175,-1.516469,12.422000
Abbeyhill,55.957046,-3.169191,0.326000
Shadwell,53.853036,-1.506455,2.737000
St Georges Cross,55.872415,-4.268958,0.450000
Nottingham City Centre,52.954663,-1.148474,1.434000
Thornton Heath,51.397158,-0.105931,1.060000
Viewforth,55.939122,-3.211716,0.137000
Beechdale,52.961444,-1.200636,0.949000
Llanishen,51.526271,-3.191785,1.364000
Four Winds,54.553770,-5.897849,0.747000
Castlereagh,54.583951,-5.886724,2.401000
Heaton Moor,53.421354,-2.183656,0.990000
Northfield,55.950480,-3.135692,0.359000
Heaton Chapel,53.426689,-2.175104,0.470000
Patchway,51.533308,-2.576380,0.961000
Highbury Vale,52.994114,-1.187279,0.475000
Canada Water,51.494277,-0.046627,1.183000
Stoke Park,51.494683,-2.544147,0.129000
London Bridge,51.496514,-0.080415,2.241000
Battersea,51.466377,-0.160280,1.736000
Coombe Dingle,51.493571,-2.645868,0.500000
Dagenham,51.547672,0.140171,1.923000
Hillhead,55.875081,-4.287847,0.630000
Netherfield,52.963360,-1.074786,0.373000
Carlton,52.967987,-1.100818,2.546000
Stokes Croft,51.461892,-2.589509,0.297000
Sandwell,52.515393,-2.009479,4.759000
Carntyne,55.861096,-4.182505,1.082000
Ealing,51.514272,-0.312633,3.870000
Burnside,55.815115,-4.199573,1.140000
Cotteridge,52.416926,-1.929794,0.722000
Victoria Park,53.456091,-2.212159,0.658000
Tollcross,55.845968,-4.179075,1.446000
Brentford,51.486211,-0.308915,1.587000
Wavertree,53.395196,-2.929244,1.399000
Chiswick,51.493573,-0.261431,2.212000
West End,51.515024,-0.140273,1.635000
Leith Walk,55.963199,-3.176177,0.837000
Woodlands,55.871190,-4.274742,0.381000
Cardiff City Centre,51.480854,-3.174169,1.284000
Archway,51.565774,-0.129348,0.994000
Walthamstow,51.582621,-0.017327,1.456000
Easterhouse,55.866347,-4.118287,2.010000
Surbiton,51.389476,-0.298863,1.691000
The Shore,55.975175,-3.170874,0.778000
City of London,51.514641,-0.091902,1.499000
Restalrig,55.962246,-3.151800,0.685000
North West London,51.576263,-0.282693,13.037000
Mossley Hill,53.384279,-2.916079,0.964000
St Johns Wood,51.531060,-0.174756,0.967000
Gartcosh,55.890857,-4.085932,0.861000
Surrey Quays,51.493587,-0.044471,1.083000
Streatham Hill,51.435762,-0.125097,1.008000
Everton,53.419801,-2.967878,1.114000
Slateford,55.932893,-3.235293,0.758000
Morningside,55.926867,-3.209328,0.572000
Balham,51.440494,-0.147836,1.465000
Dalston,51.545184,-0.071296,1.011000
Teddington,51.426439,-0.333441,1.503000
Kingsbury,51.583939,-0.265531,1.909000
Balsall Heath,52.456043,-1.885479,1.458000
Hounslow,51.469783,-0.367450,3.260000
Juniper Green,55.904105,-3.284832,0.967000
Bridgeton,55.847013,-4.226138,0.405000
Whalley Range,53.451300,-2.259540,1.282000
Wandsworth,51.451489,-0.179232,2.747000
Gorgie,55.936503,-3.233783,0.633000
St Agnes,51.464270,-2.578454,0.145000
North Finchley,51.613707,-0.176910,1.247000
Yardley Wood,52.413230,-1.867175,0.945000
Cardiff Bay,51.465833,-3.171548,1.887000
Cyncoed,51.515793,-3.163264,1.506000
Harpurhey,53.509851,-2.210753,1.041000
Holbeck,53.783322,-1.561635,0.300000
Rhiwbina,51.522382,-3.209743,1.647000
Woodthorpe,52.989362,-1.125770,1.304000
Kelvinbridge,55.875202,-4.278069,0.579000
Strelley,52.975991,-1.227065,0.501000
Falls Road,54.594260,-5.961341,0.748000
St Annes,51.450633,-2.541733,0.618000
Stretford,53.450294,-2.305138,2.161000
Crookston,55.830472,-4.363413,1.061000
Sunderland,54.904504,-1.405308,6.159000
Stoke Newington,51.560597,-0.075584,1.116000
West Bridgford,52.930692,-1.128888,1.586000
Portobello,55.952672,-3.111511,1.380000
Rowley Regis,52.482182,-2.040931,1.795000
Tuebrook,53.425241,-2.935847,1.002000
Bishopbriggs,55.903786,-4.216854,1.975000
Manor Park,51.546016,0.048953,1.384000
Old Market,51.456123,-2.579911,0.429000
Farnley,53.787825,-1.615309,1.174000
Gatley,53.391115,-2.242438,1.597000
Leith,55.966703,-3.174979,1.483000
Cliftonwood,51.450012,-2.613959,0.348000
Ibrox,55.853860,-4.301135,0.939000
Oxford,51.746378,-1.226748,12.694000
Renfrew,55.872676,-4.391063,1.651000
Ruislip,51.569673,-0.408951,1.789000
Salford Quays,53.473280,-2.283478,1.073000
Selly Oak,52.439925,-1.937375,2.140000
Tollcross,55.943359,-3.202722,0.378000
Islington,51.543095,-0.102022,2.089000
Twickenham,51.449221,-0.339626,2.405000
Perry Barr,52.511295,-1.900542,1.288000
Crystal Palace,51.415741,-0.075990,1.434000
Hanham,51.448788,-2.516739,1.174000
Maida Vale,51.528678,-0.189728,1.265000
Crumpsall,53.516211,-2.240477,1.192000
Grangetown,51.469544,-3.185554,0.925000
Totterdown,51.440646,-2.576254,0.685000
Stoneycroft,53.419253,-2.917036,0.924000
Walton,53.445138,-2.967346,1.711000
Pilton,55.972917,-3.239096,1.197000
Finsbury Park,51.568609,-0.106825,1.388000
Brockley,51.460304,-0.035723,0.902000
Lozells,52.501843,-1.907761,0.541000
Palmers Green,51.615954,-0.104603,1.090000
Craigentinny,55.959438,-3.140131,1.105000
Mile End,51.522412,-0.033460,1.549000
Thornhill,51.538191,-3.195049,0.795000
Carrick Knowe,55.934902,-3.273916,0.499000
Fallowfield,53.441429,-2.221814,1.888000
Swiss Cottage,51.544500,-0.178128,1.161000
Stranmillis,54.575433,-5.932556,0.805000
Kings Park,55.821347,-4.240500,1.306000
Horfield,51.487309,-2.582062,1.503000
Chingford,51.617553,-0.005393,2.009000
Top Valley,53.007393,-1.165656,0.737000
Cathays,51.492881,-3.176686,1.026000
Northern Quarter,53.483504,-2.233885,0.475000
Basford,52.983124,-1.176710,1.343000
Sheffield,53.381301,-1.460548,26.577000
Ladywood,52.475575,-1.925823,0.958000
Old Basford,52.985465,-1.180101,0.673000
Fettes,55.968803,-3.227809,0.428000
Crouch End,51.578485,-0.120775,0.982000
Riddrie,55.866720,-4.188992,0.712000
Redfield,51.458211,-2.556452,0.383000
Forest Fields,52.969077,-1.165556,0.617000
Westminster,51.511514,-0.146061,4.010000
Wester Hailes,55.916875,-3.281786,0.902000
Nottingham,52.954663,-1.148474,7.626000
